id,label,federation,domain,uri,spatial_anchor,temporal_start,temporal_end,survey_depth,is_seed,place_type,lat,lon
48210386,Tempio Grande at Vulci,pleiades,roman_republic,https://pleiades.stoa.org/places/48210386,https://pleiades.stoa.org/places/48210386,-750,300,0,False,temple-2,42.4196838,11.62832065
265876,Consabura/Consabrum,pleiades,roman_republic,https://pleiades.stoa.org/places/265876,https://pleiades.stoa.org/places/265876,-330,2099,0,False,settlement,39.460299,-3.606772
265877,Contestania (region),pleiades,roman_republic,https://pleiades.stoa.org/places/265877,https://pleiades.stoa.org/places/265877,-330,300,0,False,"region, label",38.4282302524,-0.879814039831
265878,Cueva de la Paloma,pleiades,roman_republic,https://pleiades.stoa.org/places/265878,https://pleiades.stoa.org/places/265878,-330,300,0,False,mine-2,37.241792,-2.403309
265880,Dianium/Hemeroskopeion,pleiades,roman_republic,https://pleiades.stoa.org/places/265880,https://pleiades.stoa.org/places/265880,-550,2100,0,False,settlement,38.842795,0.107511
265882,Ebura,pleiades,roman_republic,https://pleiades.stoa.org/places/265882,https://pleiades.stoa.org/places/265882,-30,300,0,False,settlement,37.463838,-3.924959
265883,Ebusus,pleiades,roman_republic,https://pleiades.stoa.org/places/265883,https://pleiades.stoa.org/places/265883,-750,640,0,False,settlement,38.908393,1.432146
265884,Ebusus (island),pleiades,roman_republic,https://pleiades.stoa.org/places/265884,https://pleiades.stoa.org/places/265884,-750,2100,0,False,island,38.9815279739,1.41221877607
265886,Edeba,pleiades,roman_republic,https://pleiades.stoa.org/places/265886,https://pleiades.stoa.org/places/265886,-30,300,0,False,settlement,38.640276,-3.362253
265887,Edeta/Leiria,pleiades,roman_republic,https://pleiades.stoa.org/places/265887,https://pleiades.stoa.org/places/265887,-550,300,0,False,settlement,39.624587,-0.594758
265888,Edetania (region),pleiades,roman_republic,https://pleiades.stoa.org/places/265888,https://pleiades.stoa.org/places/265888,-330,300,0,False,"region, label",39.6796153965,-0.626311039138
265890,Elche de la Sierra,pleiades,roman_republic,https://pleiades.stoa.org/places/265890,https://pleiades.stoa.org/places/265890,-330,2099,0,False,"settlement, settlement-modern",38.447444,-2.04839
265891,Eliocroca?,pleiades,roman_republic,https://pleiades.stoa.org/places/265891,https://pleiades.stoa.org/places/265891,-330,640,0,False,settlement,37.671353,-1.698809
265893,Epora,pleiades,roman_republic,https://pleiades.stoa.org/places/265893,https://pleiades.stoa.org/places/265893,-330,640,0,False,settlement,38.026033,-4.381896
265894,Etobesa/Etouissa?,pleiades,roman_republic,https://pleiades.stoa.org/places/265894,https://pleiades.stoa.org/places/265894,-330,300,0,False,settlement,40.0787678,0.1354228
265896,Roman Villa at El Faro (Torrox),pleiades,roman_republic,https://pleiades.stoa.org/places/265896,https://pleiades.stoa.org/places/265896,-30,2100,0,False,villa,36.7266472,-3.9576942
265897,Ferrarium/Tenebrium (promontory),pleiades,roman_republic,https://pleiades.stoa.org/places/265897,https://pleiades.stoa.org/places/265897,-30,2100,0,False,cape,38.7335803,0.2301139
265898,Ficariensis Locus?,pleiades,roman_republic,https://pleiades.stoa.org/places/265898,https://pleiades.stoa.org/places/265898,-30,300,0,False,settlement,37.599034,-1.313677
265899,Fortuna,pleiades,roman_republic,https://pleiades.stoa.org/places/265899,https://pleiades.stoa.org/places/265899,-330,300,0,False,sanctuary,38.208848,-1.143263
265900,Fraxinum?,pleiades,roman_republic,https://pleiades.stoa.org/places/265900,https://pleiades.stoa.org/places/265900,-30,640,0,False,settlement,37.727146,-3.047757
265903,Fuente de las Piedras,pleiades,roman_republic,https://pleiades.stoa.org/places/265903,https://pleiades.stoa.org/places/265903,-30,1999,0,False,villa,37.4883786695,-4.45906001186
265905,Giribaile,pleiades,roman_republic,https://pleiades.stoa.org/places/265905,https://pleiades.stoa.org/places/265905,-330,300,0,False,settlement,38.122254,-3.483153
265906,Guium?,pleiades,roman_republic,https://pleiades.stoa.org/places/265906,https://pleiades.stoa.org/places/265906,-30,300,0,False,settlement,39.339079,3.050936
265914,Hoyo de la Campana,pleiades,roman_republic,https://pleiades.stoa.org/places/265914,https://pleiades.stoa.org/places/265914,-330,300,0,False,mine-2,37.128828,-3.605316
265916,Iamo/Iamna,pleiades,roman_republic,https://pleiades.stoa.org/places/265916,https://pleiades.stoa.org/places/265916,-330,2099,0,False,"settlement, settlement-modern",40.0004404,3.8352372
265917,(I)Aspis,pleiades,roman_republic,https://pleiades.stoa.org/places/265917,https://pleiades.stoa.org/places/265917,-30,2099,0,False,settlement-modern,38.3459902,-0.7692125
265919,Igabrum/Egabrum,pleiades,roman_republic,https://pleiades.stoa.org/places/265919,https://pleiades.stoa.org/places/265919,-30,2100,0,False,settlement,37.474155,-4.425943
265920,Ildum,pleiades,roman_republic,https://pleiades.stoa.org/places/265920,https://pleiades.stoa.org/places/265920,-330,640,0,False,settlement,40.231686,0.073556
265921,Iliberri,pleiades,roman_republic,https://pleiades.stoa.org/places/265921,https://pleiades.stoa.org/places/265921,-330,2100,0,False,settlement,37.176484,-3.597934
265922,Ilici/Helike,pleiades,roman_republic,https://pleiades.stoa.org/places/265922,https://pleiades.stoa.org/places/265922,-750,2100,0,False,"settlement, archaeological-site",38.2396,-0.6953
265923,Ilicitanus Sinus,pleiades,roman_republic,https://pleiades.stoa.org/places/265923,https://pleiades.stoa.org/places/265923,-30,2100,0,False,water-open,38.3,-0.45
265924,Iliturgi,pleiades,roman_republic,https://pleiades.stoa.org/places/265924,https://pleiades.stoa.org/places/265924,-330,640,0,False,settlement,37.968343,-3.80883
265925,Iliturgicola,pleiades,roman_republic,https://pleiades.stoa.org/places/265925,https://pleiades.stoa.org/places/265925,-30,300,0,False,settlement,37.511643,-4.148005
265926,Illikitanos Limen,pleiades,roman_republic,https://pleiades.stoa.org/places/265926,https://pleiades.stoa.org/places/265926,-30,640,0,False,settlement,38.184959,-0.614465
265927,Ilorci,pleiades,roman_republic,https://pleiades.stoa.org/places/265927,https://pleiades.stoa.org/places/265927,-330,640,0,False,settlement,38.081834,-1.254941
265928,Tolmo de Minateda,pleiades,roman_republic,https://pleiades.stoa.org/places/265928,https://pleiades.stoa.org/places/265928,-550,2099,0,False,"acropolis, forum, city-wall, cistern, townhouse, city-gate, settlement, architecturalcomplex, archaeological-site",38.4767844,-1.6070951
265929,Ilugo,pleiades,roman_republic,https://pleiades.stoa.org/places/265929,https://pleiades.stoa.org/places/265929,-330,300,0,False,settlement,38.247458,-3.206444
265930,Ilurco,pleiades,roman_republic,https://pleiades.stoa.org/places/265930,https://pleiades.stoa.org/places/265930,-30,300,0,False,settlement,37.267154,-3.767231
265932,Iniesta,pleiades,roman_republic,https://pleiades.stoa.org/places/265932,https://pleiades.stoa.org/places/265932,-30,640,0,False,settlement,39.440732,-1.749431
265935,Ipolcobulcola,pleiades,roman_republic,https://pleiades.stoa.org/places/265935,https://pleiades.stoa.org/places/265935,-30,300,0,False,settlement,37.443593,-4.273434
265936,Iponuba/Hippo Nova,pleiades,roman_republic,https://pleiades.stoa.org/places/265936,https://pleiades.stoa.org/places/265936,-30,300,0,False,settlement,37.5966266,-4.3084564
265937,*Ipsca,pleiades,roman_republic,https://pleiades.stoa.org/places/265937,https://pleiades.stoa.org/places/265937,-330,300,0,False,settlement,37.67242,-4.39041
265938,Torreparedones,pleiades,roman_republic,https://pleiades.stoa.org/places/265938,https://pleiades.stoa.org/places/265938,-330,300,0,False,"settlement, archaeological-site",37.7552577014,-4.37758419156
265939,Isturgi,pleiades,roman_republic,https://pleiades.stoa.org/places/265939,https://pleiades.stoa.org/places/265939,-30,640,0,False,settlement,38.026896,-3.983804
265943,Jumilla,pleiades,roman_republic,https://pleiades.stoa.org/places/265943,https://pleiades.stoa.org/places/265943,-330,640,0,False,settlement,38.4555288,-1.3248629
265945,El Laderón,pleiades,roman_republic,https://pleiades.stoa.org/places/265945,https://pleiades.stoa.org/places/265945,-330,300,0,False,settlement,37.540948,-4.373006
265946,Laminium,pleiades,roman_republic,https://pleiades.stoa.org/places/265946,https://pleiades.stoa.org/places/265946,-330,640,0,False,settlement,38.899451,-3.053453
265948,Letrania,pleiades,roman_republic,https://pleiades.stoa.org/places/265948,https://pleiades.stoa.org/places/265948,-30,640,0,False,villa,37.786162,-3.612398
265949,Libisosa,pleiades,roman_republic,https://pleiades.stoa.org/places/265949,https://pleiades.stoa.org/places/265949,-330,640,0,False,settlement,38.9418966911,-2.35501311079
265950,Linares,pleiades,roman_republic,https://pleiades.stoa.org/places/265950,https://pleiades.stoa.org/places/265950,-330,640,0,False,mine-2,38.093632,-3.636489
265951,Lobetanoi,pleiades,roman_republic,https://pleiades.stoa.org/places/265951,https://pleiades.stoa.org/places/265951,-30,300,0,False,people,40.4072825,-1.4442792
265952,Longuntica,pleiades,roman_republic,https://pleiades.stoa.org/places/265952,https://pleiades.stoa.org/places/265952,-330,-30,0,False,settlement,37.403784,-1.581155
265954,Lucentum,pleiades,roman_republic,https://pleiades.stoa.org/places/265954,https://pleiades.stoa.org/places/265954,-330,750,0,False,settlement,38.3646181732,-0.438803462827
265955,Luque,pleiades,roman_republic,https://pleiades.stoa.org/places/265955,https://pleiades.stoa.org/places/265955,-330,300,0,False,quarry,37.559338,-4.276541
265957,Macael,pleiades,roman_republic,https://pleiades.stoa.org/places/265957,https://pleiades.stoa.org/places/265957,-330,300,0,False,quarry,37.332285,-2.304901
265958,Maenuba (river),pleiades,roman_republic,https://pleiades.stoa.org/places/265958,https://pleiades.stoa.org/places/265958,-30,2099,0,False,river,36.7762137108,-4.11921265059
265959,Maenuba/Menova,pleiades,roman_republic,https://pleiades.stoa.org/places/265959,https://pleiades.stoa.org/places/265959,-550,640,0,False,settlement,36.77864,-4.100678
265960,Mago,pleiades,roman_republic,https://pleiades.stoa.org/places/265960,https://pleiades.stoa.org/places/265960,-330,2100,0,False,"settlement, settlement-modern",39.8894325,4.2647291
265961,Mainake,pleiades,roman_republic,https://pleiades.stoa.org/places/265961,https://pleiades.stoa.org/places/265961,-750,-30,0,False,settlement,36.741931,-4.094288
265963,Malaca,pleiades,roman_republic,https://pleiades.stoa.org/places/265963,https://pleiades.stoa.org/places/265963,-750,2100,0,False,settlement,36.719658,-4.420163
265964,Malaca (river),pleiades,roman_republic,https://pleiades.stoa.org/places/265964,https://pleiades.stoa.org/places/265964,-30,2100,0,False,"canal, river",36.7721695895,-4.4332391119
265965,Mariana,pleiades,roman_republic,https://pleiades.stoa.org/places/265965,https://pleiades.stoa.org/places/265965,-30,640,0,False,settlement,38.547361,-2.92748
265966,Marianus (mountain range),pleiades,roman_republic,https://pleiades.stoa.org/places/265966,https://pleiades.stoa.org/places/265966,-330,1599,0,False,"mountain, label",38.4197222,-4.2380556
265967,Marruca,pleiades,roman_republic,https://pleiades.stoa.org/places/265967,https://pleiades.stoa.org/places/265967,-30,300,0,False,settlement,37.595765,-4.602629
265969,Mentesa,pleiades,roman_republic,https://pleiades.stoa.org/places/265969,https://pleiades.stoa.org/places/265969,-330,300,0,False,settlement,38.692191,-2.694845
265970,Mentesa Bastia,pleiades,roman_republic,https://pleiades.stoa.org/places/265970,https://pleiades.stoa.org/places/265970,-330,640,0,False,settlement,37.741633,-3.692715
265973,Montoro-Andújar,pleiades,roman_republic,https://pleiades.stoa.org/places/265973,https://pleiades.stoa.org/places/265973,-330,300,0,False,mine-2,38.155628,-4.052078
265974,Monturque,pleiades,roman_republic,https://pleiades.stoa.org/places/265974,https://pleiades.stoa.org/places/265974,-30,1999,0,False,settlement,37.473348,-4.581713
265975,Morana,pleiades,roman_republic,https://pleiades.stoa.org/places/265975,https://pleiades.stoa.org/places/265975,-330,1453,0,False,settlement,37.350654,-4.601944
265977,Murgi,pleiades,roman_republic,https://pleiades.stoa.org/places/265977,https://pleiades.stoa.org/places/265977,-330,300,0,False,"settlement, amphitheatre",36.775074,-2.812733
265982,Obulco,pleiades,roman_republic,https://pleiades.stoa.org/places/265982,https://pleiades.stoa.org/places/265982,-330,2100,0,False,settlement,37.870867,-4.184754
265983,Ocules,pleiades,roman_republic,https://pleiades.stoa.org/places/265983,https://pleiades.stoa.org/places/265983,-30,2100,0,False,settlement,39.98188,-2.86232
265984,Olcades?,pleiades,roman_republic,https://pleiades.stoa.org/places/265984,https://pleiades.stoa.org/places/265984,-330,-30,0,False,"label, people",38.9942692509,-4.56211269532
265985,Onuba,pleiades,roman_republic,https://pleiades.stoa.org/places/265985,https://pleiades.stoa.org/places/265985,-330,300,0,False,settlement,37.953182,-4.496471
265987,*Opta,pleiades,roman_republic,https://pleiades.stoa.org/places/265987,https://pleiades.stoa.org/places/265987,-330,300,0,False,settlement,40.145946,-2.687313
265988,Oretana Iuga,pleiades,roman_republic,https://pleiades.stoa.org/places/265988,https://pleiades.stoa.org/places/265988,-30,300,0,False,"mountain, label",38.4682824958,-3.67323449125
265989,Oretania/Oretani,pleiades,roman_republic,https://pleiades.stoa.org/places/265989,https://pleiades.stoa.org/places/265989,-330,300,0,False,"region, label, people",38.6378190925,-3.68840355517
265990,Oretum,pleiades,roman_republic,https://pleiades.stoa.org/places/265990,https://pleiades.stoa.org/places/265990,-330,640,0,False,settlement,38.7606439,-3.7256823
265992,Orospeda (mountain),pleiades,roman_republic,https://pleiades.stoa.org/places/265992,https://pleiades.stoa.org/places/265992,-330,2100,0,False,mountain,38.1197989502,-2.6880383587
265994,Ossigi,pleiades,roman_republic,https://pleiades.stoa.org/places/265994,https://pleiades.stoa.org/places/265994,-30,640,0,False,settlement,37.848915,-3.560303
265996,Pago de Bruñel,pleiades,roman_republic,https://pleiades.stoa.org/places/265996,https://pleiades.stoa.org/places/265996,-30,640,0,False,villa,37.8853869595,-3.07913829564
265997,El Palacio,pleiades,roman_republic,https://pleiades.stoa.org/places/265997,https://pleiades.stoa.org/places/265997,-30,640,0,False,villa,39.389921,-3.210143
265998,Palma,pleiades,roman_republic,https://pleiades.stoa.org/places/265998,https://pleiades.stoa.org/places/265998,-330,640,0,False,settlement,39.569443,2.649993
265999,Parietinae,pleiades,roman_republic,https://pleiades.stoa.org/places/265999,https://pleiades.stoa.org/places/265999,-330,300,0,False,station,38.962484,-2.008396
266000,Paulenca,pleiades,roman_republic,https://pleiades.stoa.org/places/266000,https://pleiades.stoa.org/places/266000,-30,640,0,False,villa,37.293649,-3.168573
266001,Pityussae (islands),pleiades,roman_republic,https://pleiades.stoa.org/places/266001,https://pleiades.stoa.org/places/266001,-750,2099,0,False,archipelago,38.8343975382,1.43818829136
266002,Planesia (island),pleiades,roman_republic,https://pleiades.stoa.org/places/266002,https://pleiades.stoa.org/places/266002,-330,2100,0,False,"island, label",38.7552068213,0.229848655964
266003,Plaza de Armas,pleiades,roman_republic,https://pleiades.stoa.org/places/266003,https://pleiades.stoa.org/places/266003,-330,300,0,False,settlement,37.56834,-4.471493
266004,Pollentia,pleiades,roman_republic,https://pleiades.stoa.org/places/266004,https://pleiades.stoa.org/places/266004,-330,640,0,False,settlement,39.8485931402,3.12305890133
266005,Portos Magnos,pleiades,roman_republic,https://pleiades.stoa.org/places/266005,https://pleiades.stoa.org/places/266005,-30,300,0,False,settlement,36.840205,-2.467902
266008,Puente del Obispo,pleiades,roman_republic,https://pleiades.stoa.org/places/266008,https://pleiades.stoa.org/places/266008,-330,300,0,False,mine-2,37.95069,-3.540398
266009,Puente de la Olmilla,pleiades,roman_republic,https://pleiades.stoa.org/places/266009,https://pleiades.stoa.org/places/266009,-30,640,0,False,villa,38.618079,-2.806268
266010,Pujol de Benicató,pleiades,roman_republic,https://pleiades.stoa.org/places/266010,https://pleiades.stoa.org/places/266010,-30,640,0,False,villa,39.8329431,-0.14602
266012,Río Golopón,pleiades,roman_republic,https://pleiades.stoa.org/places/266012,https://pleiades.stoa.org/places/266012,-330,300,0,False,mine-2,37.431584,-2.686169
266013,Rojales,pleiades,roman_republic,https://pleiades.stoa.org/places/266013,https://pleiades.stoa.org/places/266013,-330,300,0,False,settlement,38.088325,-0.724242
266014,Rubielos de Mora,pleiades,roman_republic,https://pleiades.stoa.org/places/266014,https://pleiades.stoa.org/places/266014,-30,300,0,False,settlement,40.189944,-0.651476
266015,El Ruedo,pleiades,roman_republic,https://pleiades.stoa.org/places/266015,https://pleiades.stoa.org/places/266015,-30,2099,0,False,villa,37.4430896,-4.0896184
266017,Sacili,pleiades,roman_republic,https://pleiades.stoa.org/places/266017,https://pleiades.stoa.org/places/266017,-330,300,0,False,settlement,38.005797,-4.50716
266018,Saetabis,pleiades,roman_republic,https://pleiades.stoa.org/places/266018,https://pleiades.stoa.org/places/266018,-330,2099,0,False,"settlement, settlement-modern",38.98846075,-0.51780685
266019,Saetabis (river),pleiades,roman_republic,https://pleiades.stoa.org/places/266019,https://pleiades.stoa.org/places/266019,-30,2099,0,False,river,38.9547800764,-0.499146826408
266020,Sagunto,pleiades,roman_republic,https://pleiades.stoa.org/places/266020,https://pleiades.stoa.org/places/266020,-30,640,0,False,villa,39.680194,-0.278581
266021,Saguntum/Arse,pleiades,roman_republic,https://pleiades.stoa.org/places/266021,https://pleiades.stoa.org/places/266021,-550,640,0,False,settlement,39.678125,-0.2772475
266022,Salaria?,pleiades,roman_republic,https://pleiades.stoa.org/places/266022,https://pleiades.stoa.org/places/266022,-330,2100,0,False,settlement,38.008075,-3.368532
266023,Salika?,pleiades,roman_republic,https://pleiades.stoa.org/places/266023,https://pleiades.stoa.org/places/266023,-30,300,0,False,settlement,38.866536,-1.920214
266025,Saltigi,pleiades,roman_republic,https://pleiades.stoa.org/places/266025,https://pleiades.stoa.org/places/266025,-330,640,0,False,settlement,38.918645,-1.722773
266026,Sanisera,pleiades,roman_republic,https://pleiades.stoa.org/places/266026,https://pleiades.stoa.org/places/266026,-330,640,0,False,"settlement, port",40.071126,4.087751
266029,S. Tomé,pleiades,roman_republic,https://pleiades.stoa.org/places/266029,https://pleiades.stoa.org/places/266029,-30,300,0,False,settlement,38.028219,-3.10185
266030,Saturni/Scombraria (promontory),pleiades,roman_republic,https://pleiades.stoa.org/places/266030,https://pleiades.stoa.org/places/266030,-30,2100,0,False,cape,37.63479,-0.6904232
266032,Scombraria (island),pleiades,roman_republic,https://pleiades.stoa.org/places/266032,https://pleiades.stoa.org/places/266032,-330,2100,0,False,island,37.5593321297,-0.969238213357
266034,Sebelaci,pleiades,roman_republic,https://pleiades.stoa.org/places/266034,https://pleiades.stoa.org/places/266034,-330,640,0,False,settlement,39.959582,-0.138097
266035,Segisa?,pleiades,roman_republic,https://pleiades.stoa.org/places/266035,https://pleiades.stoa.org/places/266035,-330,300,0,False,settlement,38.239102,-1.418729
266036,Segobriga,pleiades,roman_republic,https://pleiades.stoa.org/places/266036,https://pleiades.stoa.org/places/266036,-330,2100,0,False,settlement,39.885321,-2.81302
266037,Selambina,pleiades,roman_republic,https://pleiades.stoa.org/places/266037,https://pleiades.stoa.org/places/266037,-30,300,0,False,settlement,36.74623,-3.587137
266038,Sexi/Saxetanum,pleiades,roman_republic,https://pleiades.stoa.org/places/266038,https://pleiades.stoa.org/places/266038,-750,2100,0,False,"settlement, port",36.734589,-3.690755
266039,Sierra de Gádor,pleiades,roman_republic,https://pleiades.stoa.org/places/266039,https://pleiades.stoa.org/places/266039,-330,300,0,False,mine-2,36.835734,-2.762919
266040,Sierra Elvira,pleiades,roman_republic,https://pleiades.stoa.org/places/266040,https://pleiades.stoa.org/places/266040,-330,300,0,False,quarry,37.228764,-3.726138
266043,Sisapo,pleiades,roman_republic,https://pleiades.stoa.org/places/266043,https://pleiades.stoa.org/places/266043,-330,640,0,False,"settlement, amphitheatre, archaeological-site",38.6459858179,-4.51791475363
266044,El Solao,pleiades,roman_republic,https://pleiades.stoa.org/places/266044,https://pleiades.stoa.org/places/266044,-30,640,0,False,villa,39.960815,-4.192941
266046,Solorius (mountain),pleiades,roman_republic,https://pleiades.stoa.org/places/266046,https://pleiades.stoa.org/places/266046,-330,640,0,False,mountain,37.072238421,-3.16462269855
266047,Sorobis (river),pleiades,roman_republic,https://pleiades.stoa.org/places/266047,https://pleiades.stoa.org/places/266047,-30,2100,0,False,river,38.9052175572,-0.225519688343
266048,*Sosontigi,pleiades,roman_republic,https://pleiades.stoa.org/places/266048,https://pleiades.stoa.org/places/266048,-30,2100,0,False,settlement,37.591059,-4.086746
266050,Spartarius? Campus,pleiades,roman_republic,https://pleiades.stoa.org/places/266050,https://pleiades.stoa.org/places/266050,-30,300,0,False,"region, label",37.7339213429,-1.26313792497
266051,(S)Ucia,pleiades,roman_republic,https://pleiades.stoa.org/places/266051,https://pleiades.stoa.org/places/266051,-330,640,0,False,settlement,38.074265,-4.186553
266052,Sucro,pleiades,roman_republic,https://pleiades.stoa.org/places/266052,https://pleiades.stoa.org/places/266052,-330,300,0,False,settlement,39.150204,-0.43809
266053,Sucro (river),pleiades,roman_republic,https://pleiades.stoa.org/places/266053,https://pleiades.stoa.org/places/266053,-330,2100,0,False,river,39.5090069363,-1.55889436125
266054,Sucronensis Sinus,pleiades,roman_republic,https://pleiades.stoa.org/places/266054,https://pleiades.stoa.org/places/266054,-30,2099,0,False,water-open,39.45,-0.1833333
266055,Suel,pleiades,roman_republic,https://pleiades.stoa.org/places/266055,https://pleiades.stoa.org/places/266055,-750,640,0,False,settlement,36.525435,-4.628919
266057,Tader (river),pleiades,roman_republic,https://pleiades.stoa.org/places/266057,https://pleiades.stoa.org/places/266057,-30,2100,0,False,river,38.2226639921,-1.69194429284
266058,*Tagili,pleiades,roman_republic,https://pleiades.stoa.org/places/266058,https://pleiades.stoa.org/places/266058,-330,300,0,False,settlement,37.345474,-2.439482
266059,Tagonios (river),pleiades,roman_republic,https://pleiades.stoa.org/places/266059,https://pleiades.stoa.org/places/266059,-330,2100,0,False,river,40.6763365642,-2.81588531026
266061,Las Tamujas,pleiades,roman_republic,https://pleiades.stoa.org/places/266061,https://pleiades.stoa.org/places/266061,-330,640,0,False,villa,39.893965,-4.546133
266063,Thiar,pleiades,roman_republic,https://pleiades.stoa.org/places/266063,https://pleiades.stoa.org/places/266063,-330,640,0,False,settlement,37.878103,-0.765831
266065,Fábrica de Armas,pleiades,roman_republic,https://pleiades.stoa.org/places/266065,https://pleiades.stoa.org/places/266065,-30,640,0,False,villa,39.982154,-4.126973
266066,Toletum,pleiades,roman_republic,https://pleiades.stoa.org/places/266066,https://pleiades.stoa.org/places/266066,-330,2100,0,False,settlement,39.85668,-4.024491
266067,Torre de la Cruz,pleiades,roman_republic,https://pleiades.stoa.org/places/266067,https://pleiades.stoa.org/places/266067,-30,640,0,False,villa,38.508037,-0.232796
266068,Los Torrejones,pleiades,roman_republic,https://pleiades.stoa.org/places/266068,https://pleiades.stoa.org/places/266068,-30,640,0,False,villa,38.604818,-1.112048
266069,Totana,pleiades,roman_republic,https://pleiades.stoa.org/places/266069,https://pleiades.stoa.org/places/266069,-330,300,0,False,settlement,37.771263,-1.501013
266070,Tucci/Col. Augusta Gemella,pleiades,roman_republic,https://pleiades.stoa.org/places/266070,https://pleiades.stoa.org/places/266070,-330,2100,0,False,settlement,37.722761,-3.966243
266071,*Tuci?,pleiades,roman_republic,https://pleiades.stoa.org/places/266071,https://pleiades.stoa.org/places/266071,-30,640,0,False,settlement,39.568749,3.21062
266072,Tugia,pleiades,roman_republic,https://pleiades.stoa.org/places/266072,https://pleiades.stoa.org/places/266072,-550,640,0,False,settlement,37.877689,-3.152365
266073,Tugiensis Saltus,pleiades,roman_republic,https://pleiades.stoa.org/places/266073,https://pleiades.stoa.org/places/266073,-330,2099,0,False,"mountain, label",38.0816371391,-2.86613113277
266074,Turaniana,pleiades,roman_republic,https://pleiades.stoa.org/places/266074,https://pleiades.stoa.org/places/266074,-30,640,0,False,"settlement, station",36.7920128,-2.587019
266075,Turdetania (region),pleiades,roman_republic,https://pleiades.stoa.org/places/266075,https://pleiades.stoa.org/places/266075,-330,640,0,False,"region, valley, label",37.4703045,-5.6464685
266076,Turia (river),pleiades,roman_republic,https://pleiades.stoa.org/places/266076,https://pleiades.stoa.org/places/266076,-330,2100,0,False,river,40.3932837872,-1.7275086106
266078,*Tutugi,pleiades,roman_republic,https://pleiades.stoa.org/places/266078,https://pleiades.stoa.org/places/266078,-750,640,0,False,settlement,37.742896,-2.551194
266081,Ucubi/Col. Claritas Iulia,pleiades,roman_republic,https://pleiades.stoa.org/places/266081,https://pleiades.stoa.org/places/266081,-330,300,0,False,settlement,37.682102,-4.552369
266082,Udiva? (river),pleiades,roman_republic,https://pleiades.stoa.org/places/266082,https://pleiades.stoa.org/places/266082,-30,2099,0,False,river,39.7164799758,-0.321384314632
266085,El Chuche (settlement),pleiades,roman_republic,https://pleiades.stoa.org/places/266085,https://pleiades.stoa.org/places/266085,-330,2099,0,False,"settlement, archaeological-site, hill",36.913113,-2.452156
266086,Urcitanus Sinus,pleiades,roman_republic,https://pleiades.stoa.org/places/266086,https://pleiades.stoa.org/places/266086,-30,2100,0,False,water-open,36.76667,-2.5
266087,Urgao/Vircao,pleiades,roman_republic,https://pleiades.stoa.org/places/266087,https://pleiades.stoa.org/places/266087,-330,2100,0,False,settlement,37.93645,-4.054925
266090,Valentia,pleiades,roman_republic,https://pleiades.stoa.org/places/266090,https://pleiades.stoa.org/places/266090,-330,1599,0,False,"settlement, port",39.470371,-0.376813
266091,La Valenzoleja,pleiades,roman_republic,https://pleiades.stoa.org/places/266091,https://pleiades.stoa.org/places/266091,-30,640,0,False,villa,37.932152,-4.673019
266092,Valeria,pleiades,roman_republic,https://pleiades.stoa.org/places/266092,https://pleiades.stoa.org/places/266092,-330,640,0,False,settlement,39.811189,-2.1493505
266093,Vergilia,pleiades,roman_republic,https://pleiades.stoa.org/places/266093,https://pleiades.stoa.org/places/266093,-30,640,0,False,settlement,37.626929,-3.538666
266094,Vicus Cuminarius,pleiades,roman_republic,https://pleiades.stoa.org/places/266094,https://pleiades.stoa.org/places/266094,-30,640,0,False,settlement,39.960387,-3.499679
266095,El Villar,pleiades,roman_republic,https://pleiades.stoa.org/places/266095,https://pleiades.stoa.org/places/266095,-30,640,0,False,villa,39.590148,-0.302075
266096,Villarrodrigo,pleiades,roman_republic,https://pleiades.stoa.org/places/266096,https://pleiades.stoa.org/places/266096,-30,300,0,False,settlement,38.48772,-2.636366
266097,Viniolae?,pleiades,roman_republic,https://pleiades.stoa.org/places/266097,https://pleiades.stoa.org/places/266097,-30,640,0,False,station,37.6282633,-3.5380913
266099,Vi(v)atia,pleiades,roman_republic,https://pleiades.stoa.org/places/266099,https://pleiades.stoa.org/places/266099,-30,2100,0,False,"settlement, settlement-modern",37.9945171,-3.4708163
266517,Untitled,pleiades,roman_republic,https://pleiades.stoa.org/places/266517,https://pleiades.stoa.org/places/266517,-30,640,0,False,aqueduct,39.5,-4.5
266518,Untitled,pleiades,roman_republic,https://pleiades.stoa.org/places/266518,https://pleiades.stoa.org/places/266518,-30,640,0,False,aqueduct,39.460299,-3.606772
266519,Untitled,pleiades,roman_republic,https://pleiades.stoa.org/places/266519,https://pleiades.stoa.org/places/266519,-30,640,0,False,aqueduct,37.5,-3.5
266520,Torrecuevas aqueduct,pleiades,roman_republic,https://pleiades.stoa.org/places/266520,https://pleiades.stoa.org/places/266520,-30,640,0,False,aqueduct,36.762144,-3.689824
266521,Untitled,pleiades,roman_republic,https://pleiades.stoa.org/places/266521,https://pleiades.stoa.org/places/266521,-30,640,0,False,aqueduct,39.8882167139,-2.81267426411
266522,Untitled,pleiades,roman_republic,https://pleiades.stoa.org/places/266522,https://pleiades.stoa.org/places/266522,-30,640,0,False,aqueduct,36.5,-2.5
266523,Untitled,pleiades,roman_republic,https://pleiades.stoa.org/places/266523,https://pleiades.stoa.org/places/266523,-30,640,0,False,aqueduct,39.74946645,-0.96807105
266524,Untitled,pleiades,roman_republic,https://pleiades.stoa.org/places/266524,https://pleiades.stoa.org/places/266524,-330,640,0,False,aqueduct,39.5,-0.5
266525,Untitled,pleiades,roman_republic,https://pleiades.stoa.org/places/266525,https://pleiades.stoa.org/places/266525,-30,640,0,False,aqueduct,38.5,-0.5
266526,Untitled,pleiades,roman_republic,https://pleiades.stoa.org/places/266526,https://pleiades.stoa.org/places/266526,-30,640,0,False,aqueduct,38.5,1.5
267272,Unnamed bridge at Isturgi on the Guadalquivir river,pleiades,roman_republic,https://pleiades.stoa.org/places/267272,https://pleiades.stoa.org/places/267272,-30,2100,0,False,bridge,38.0330123,-4.0614776
267273,Puente sobre el Arroyo Rabanales,pleiades,roman_republic,https://pleiades.stoa.org/places/267273,https://pleiades.stoa.org/places/267273,-30,1999,0,False,bridge,37.902847,-4.732364
267274,Untitled,pleiades,roman_republic,https://pleiades.stoa.org/places/267274,https://pleiades.stoa.org/places/267274,-30,640,0,False,bridge,37.5,-4.5
267275,Untitled,pleiades,roman_republic,https://pleiades.stoa.org/places/267275,https://pleiades.stoa.org/places/267275,-30,640,0,False,bridge,37.5,-4.5
267276,Villa del Río Roman Bridge,pleiades,roman_republic,https://pleiades.stoa.org/places/267276,https://pleiades.stoa.org/places/267276,-30,640,0,False,bridge,37.9871928449,-4.27161722039
267277,Puente de Cañete,pleiades,roman_republic,https://pleiades.stoa.org/places/267277,https://pleiades.stoa.org/places/267277,-30,640,0,False,bridge,37.8784531,-4.2135188
267278,Untitled,pleiades,roman_republic,https://pleiades.stoa.org/places/267278,https://pleiades.stoa.org/places/267278,-30,640,0,False,bridge,39.726715,-3.929833
267279,Unnamed Bridge,pleiades,roman_republic,https://pleiades.stoa.org/places/267279,https://pleiades.stoa.org/places/267279,-30,640,0,False,bridge,37.5990734119,-4.6704086842
267280,Untitled,pleiades,roman_republic,https://pleiades.stoa.org/places/267280,https://pleiades.stoa.org/places/267280,-30,640,0,False,bridge,37.5,-3.5
267281,Untitled,pleiades,roman_republic,https://pleiades.stoa.org/places/267281,https://pleiades.stoa.org/places/267281,-30,640,0,False,bridge,39.8846041,-2.2654996
267282,Untitled,pleiades,roman_republic,https://pleiades.stoa.org/places/267282,https://pleiades.stoa.org/places/267282,-30,640,0,False,bridge,39.4090773,-2.4159727
267283,Puente Mocho (Río Guadalimar),pleiades,roman_republic,https://pleiades.stoa.org/places/267283,https://pleiades.stoa.org/places/267283,-30,640,0,False,bridge,38.279861,-2.9638124
267284,Puente de Génave Roman Bridge,pleiades,roman_republic,https://pleiades.stoa.org/places/267284,https://pleiades.stoa.org/places/267284,-30,640,0,False,bridge,38.35542585,-2.80314915
267285,Untitled,pleiades,roman_republic,https://pleiades.stoa.org/places/267285,https://pleiades.stoa.org/places/267285,-30,1453,0,False,bridge,37.929107,-2.952102
268027,Untitled,pleiades,roman_republic,https://pleiades.stoa.org/places/268027,https://pleiades.stoa.org/places/268027,-30,640,0,False,canal,39.5,-4.5
268028,Untitled,pleiades,roman_republic,https://pleiades.stoa.org/places/268028,https://pleiades.stoa.org/places/268028,-330,640,0,False,canal,39.5,-0.5
268029,Untitled,pleiades,roman_republic,https://pleiades.stoa.org/places/268029,https://pleiades.stoa.org/places/268029,-330,-30,0,False,canal,39.5,-0.5
268782,Untitled,pleiades,roman_republic,https://pleiades.stoa.org/places/268782,https://pleiades.stoa.org/places/268782,-30,640,0,False,dam,40.054791,-4.73837
268783,Unnamed dam,pleiades,roman_republic,https://pleiades.stoa.org/places/268783,https://pleiades.stoa.org/places/268783,-30,640,0,False,dam,39.7512433021,-4.37290299668
268784,Alcantarilla Roman Dam,pleiades,roman_republic,https://pleiades.stoa.org/places/268784,https://pleiades.stoa.org/places/268784,-30,640,0,False,dam,39.6605587,-4.0607239
268785,Unnamed ancient dams,pleiades,roman_republic,https://pleiades.stoa.org/places/268785,https://pleiades.stoa.org/places/268785,-30,640,0,False,dam,39.5,-4.5
268786,Consuegra Dam,pleiades,roman_republic,https://pleiades.stoa.org/places/268786,https://pleiades.stoa.org/places/268786,-30,640,0,False,dam,39.4296584275,-3.65505785632
268787,Untitled,pleiades,roman_republic,https://pleiades.stoa.org/places/268787,https://pleiades.stoa.org/places/268787,-30,640,0,False,dam,39.5,-3.5
268788,Untitled,pleiades,roman_republic,https://pleiades.stoa.org/places/268788,https://pleiades.stoa.org/places/268788,-30,640,0,False,dam,39.5,-3.5
268789,Untitled,pleiades,roman_republic,https://pleiades.stoa.org/places/268789,https://pleiades.stoa.org/places/268789,-30,640,0,False,dam,37.269319,-3.742219
268790,Untitled,pleiades,roman_republic,https://pleiades.stoa.org/places/268790,https://pleiades.stoa.org/places/268790,-330,640,0,False,dam,39.5,-0.5
268791,Untitled,pleiades,roman_republic,https://pleiades.stoa.org/places/268791,https://pleiades.stoa.org/places/268791,-330,-30,0,False,dam,39.5,-0.5
269537,Untitled,pleiades,roman_republic,https://pleiades.stoa.org/places/269537,https://pleiades.stoa.org/places/269537,-30,640,0,False,road,38.5,-1.0
269538,Untitled,pleiades,roman_republic,https://pleiades.stoa.org/places/269538,https://pleiades.stoa.org/places/269538,-30,640,0,False,road,37.6417245,-2.82131825
269539,Untitled,pleiades,roman_republic,https://pleiades.stoa.org/places/269539,https://pleiades.stoa.org/places/269539,-30,640,0,False,road,38.5,-1.0
269540,Untitled,pleiades,roman_republic,https://pleiades.stoa.org/places/269540,https://pleiades.stoa.org/places/269540,-30,640,0,False,road,38.5,-1.0
269541,Untitled,pleiades,roman_republic,https://pleiades.stoa.org/places/269541,https://pleiades.stoa.org/places/269541,-330,640,0,False,road,38.5,-1.0
269542,Untitled,pleiades,roman_republic,https://pleiades.stoa.org/places/269542,https://pleiades.stoa.org/places/269542,-330,640,0,False,road,38.5,-1.0
269543,Untitled,pleiades,roman_republic,https://pleiades.stoa.org/places/269543,https://pleiades.stoa.org/places/269543,-30,640,0,False,road,38.5,-1.0
269544,Untitled,pleiades,roman_republic,https://pleiades.stoa.org/places/269544,https://pleiades.stoa.org/places/269544,-330,300,0,False,road,38.5,-1.0
269545,Untitled,pleiades,roman_republic,https://pleiades.stoa.org/places/269545,https://pleiades.stoa.org/places/269545,-330,640,0,False,road,38.5,-1.0
269546,Untitled,pleiades,roman_republic,https://pleiades.stoa.org/places/269546,https://pleiades.stoa.org/places/269546,-30,640,0,False,road,39.885321,-2.81302
269547,Untitled,pleiades,roman_republic,https://pleiades.stoa.org/places/269547,https://pleiades.stoa.org/places/269547,-30,640,0,False,road,38.5,-1.0
269548,Untitled,pleiades,roman_republic,https://pleiades.stoa.org/places/269548,https://pleiades.stoa.org/places/269548,-30,640,0,False,road,38.5,-1.0
269549,Untitled,pleiades,roman_republic,https://pleiades.stoa.org/places/269549,https://pleiades.stoa.org/places/269549,-30,640,0,False,road,38.5,-1.0
269550,Untitled,pleiades,roman_republic,https://pleiades.stoa.org/places/269550,https://pleiades.stoa.org/places/269550,-30,640,0,False,road,38.5,-1.0
269551,Untitled,pleiades,roman_republic,https://pleiades.stoa.org/places/269551,https://pleiades.stoa.org/places/269551,-30,640,0,False,road,38.5,-1.0
269552,Untitled,pleiades,roman_republic,https://pleiades.stoa.org/places/269552,https://pleiades.stoa.org/places/269552,-30,640,0,False,road,38.5,-1.0
269553,Untitled,pleiades,roman_republic,https://pleiades.stoa.org/places/269553,https://pleiades.stoa.org/places/269553,-30,640,0,False,road,38.5,-1.0
269554,Untitled,pleiades,roman_republic,https://pleiades.stoa.org/places/269554,https://pleiades.stoa.org/places/269554,-330,300,0,False,road,38.5,-1.0
269555,Untitled,pleiades,roman_republic,https://pleiades.stoa.org/places/269555,https://pleiades.stoa.org/places/269555,-330,300,0,False,road,38.5,-1.0
269556,Untitled,pleiades,roman_republic,https://pleiades.stoa.org/places/269556,https://pleiades.stoa.org/places/269556,-30,640,0,False,road,38.5,-1.0
269557,Untitled,pleiades,roman_republic,https://pleiades.stoa.org/places/269557,https://pleiades.stoa.org/places/269557,-30,640,0,False,road,38.5,-1.0
269558,Untitled,pleiades,roman_republic,https://pleiades.stoa.org/places/269558,https://pleiades.stoa.org/places/269558,-330,640,0,False,road,39.610073375,-0.222125425
269559,Untitled,pleiades,roman_republic,https://pleiades.stoa.org/places/269559,https://pleiades.stoa.org/places/269559,-30,640,0,False,road,38.5,-1.0
269560,Untitled,pleiades,roman_republic,https://pleiades.stoa.org/places/269560,https://pleiades.stoa.org/places/269560,-30,640,0,False,road,39.7592886667,-2.63999766667
269561,Untitled,pleiades,roman_republic,https://pleiades.stoa.org/places/269561,https://pleiades.stoa.org/places/269561,-330,300,0,False,road,38.7441996667,-0.341959666667
269562,Untitled,pleiades,roman_republic,https://pleiades.stoa.org/places/269562,https://pleiades.stoa.org/places/269562,-30,640,0,False,road,38.5,-1.0
269563,Untitled,pleiades,roman_republic,https://pleiades.stoa.org/places/269563,https://pleiades.stoa.org/places/269563,-30,640,0,False,road,39.95945,-4.834583
269564,Untitled,pleiades,roman_republic,https://pleiades.stoa.org/places/269564,https://pleiades.stoa.org/places/269564,-30,640,0,False,road,38.5,-1.0
270339,Libana,pleiades,roman_republic,https://pleiades.stoa.org/places/270339,https://pleiades.stoa.org/places/270339,-30,300,0,False,unlocated,41.5,-3.5
270340,Lobeton,pleiades,roman_republic,https://pleiades.stoa.org/places/270340,https://pleiades.stoa.org/places/270340,-30,2100,0,False,"unlocated, settlement-modern",40.4072825,-1.4442792
270348,Menariae (islands),pleiades,roman_republic,https://pleiades.stoa.org/places/270348,https://pleiades.stoa.org/places/270348,-30,300,0,False,"archipelago, unlocated",39.5037935648,2.54523849811
270358,Ourkesa,pleiades,roman_republic,https://pleiades.stoa.org/places/270358,https://pleiades.stoa.org/places/270358,-30,300,0,False,unlocated,41.5,-3.5
270371,Salduba (river),pleiades,roman_republic,https://pleiades.stoa.org/places/270371,https://pleiades.stoa.org/places/270371,-30,2099,0,False,river,36.7244477286,-4.29144265545
275577,Abila M.,pleiades,roman_republic,https://pleiades.stoa.org/places/275577,https://pleiades.stoa.org/places/275577,-550,2100,0,False,mountain,35.9,-5.283333
275578,el Adeb,pleiades,roman_republic,https://pleiades.stoa.org/places/275578,https://pleiades.stoa.org/places/275578,-30,640,0,False,settlement,35.149999,-5.959999
275579,Ad Mercuri?,pleiades,roman_republic,https://pleiades.stoa.org/places/275579,https://pleiades.stoa.org/places/275579,-30,300,0,False,station,35.508424,-5.839493
275580,Ad Novas,pleiades,roman_republic,https://pleiades.stoa.org/places/275580,https://pleiades.stoa.org/places/275580,-30,2099,0,False,"station, settlement-modern",35.69404,-5.93182
275581,Ain Dalia,pleiades,roman_republic,https://pleiades.stoa.org/places/275581,https://pleiades.stoa.org/places/275581,-30,300,0,False,fort,35.659998,-5.83
275582,Ain el Hajaj,pleiades,roman_republic,https://pleiades.stoa.org/places/275582,https://pleiades.stoa.org/places/275582,-30,300,0,False,fort,33.991731,-6.752441
275583,Ain el Hammam,pleiades,roman_republic,https://pleiades.stoa.org/places/275583,https://pleiades.stoa.org/places/275583,-30,640,0,False,bath,35.636653,-5.924985
275584,Ain Kerma,pleiades,roman_republic,https://pleiades.stoa.org/places/275584,https://pleiades.stoa.org/places/275584,-30,300,0,False,settlement,34.006995,-5.615987
275585,Ain Mesbah,pleiades,roman_republic,https://pleiades.stoa.org/places/275585,https://pleiades.stoa.org/places/275585,-30,300,0,False,villa,35.170026,-6.010001
275586,Ain Schkour,pleiades,roman_republic,https://pleiades.stoa.org/places/275586,https://pleiades.stoa.org/places/275586,-30,300,0,False,fort,34.111025,-5.507561
275587,Ain Skhoun,pleiades,roman_republic,https://pleiades.stoa.org/places/275587,https://pleiades.stoa.org/places/275587,-30,300,0,False,villa,34.154176,-5.48348
275588,Ain Taslalet,pleiades,roman_republic,https://pleiades.stoa.org/places/275588,https://pleiades.stoa.org/places/275588,-30,300,0,False,villa,34.162287,-5.505728
275590,Aquae Dacicae,pleiades,roman_republic,https://pleiades.stoa.org/places/275590,https://pleiades.stoa.org/places/275590,-30,300,0,False,bath,34.14657,-5.800742
275591,Aquila Maior (promontory),pleiades,roman_republic,https://pleiades.stoa.org/places/275591,https://pleiades.stoa.org/places/275591,-30,2099,0,False,cape,35.6848561,-5.2746647
275592,Aquila Minor (promontory),pleiades,roman_republic,https://pleiades.stoa.org/places/275592,https://pleiades.stoa.org/places/275592,-30,2099,0,False,cape,35.77,-5.34
275593,Arbaoua,pleiades,roman_republic,https://pleiades.stoa.org/places/275593,https://pleiades.stoa.org/places/275593,-30,300,0,False,settlement,34.911715,-5.913774
275594,Asilah,pleiades,roman_republic,https://pleiades.stoa.org/places/275594,https://pleiades.stoa.org/places/275594,-30,640,0,False,"settlement, port",35.462278,-6.034773
275596,Autololes/Autoteles,pleiades,roman_republic,https://pleiades.stoa.org/places/275596,https://pleiades.stoa.org/places/275596,-30,640,0,False,"label, people",33.7418199194,-6.45439045352
275599,Banasa,pleiades,roman_republic,https://pleiades.stoa.org/places/275599,https://pleiades.stoa.org/places/275599,-550,300,0,False,"settlement, archaeological-site",34.6018947312,-6.11529384351
275600,Baniurae?,pleiades,roman_republic,https://pleiades.stoa.org/places/275600,https://pleiades.stoa.org/places/275600,-330,300,0,False,"label, people",34.5619757896,-5.73211367432
275601,Baquates,pleiades,roman_republic,https://pleiades.stoa.org/places/275601,https://pleiades.stoa.org/places/275601,-30,300,0,False,"label, people",33.9533750806,-5.14473182864
275602,Barbari Pr.,pleiades,roman_republic,https://pleiades.stoa.org/places/275602,https://pleiades.stoa.org/places/275602,-30,2100,0,False,cape,35.55019,-5.22618
275603,el Benian,pleiades,roman_republic,https://pleiades.stoa.org/places/275603,https://pleiades.stoa.org/places/275603,-30,640,0,False,fort,35.652287,-5.690206
275604,Beni Said,pleiades,roman_republic,https://pleiades.stoa.org/places/275604,https://pleiades.stoa.org/places/275604,-30,640,0,False,fort,35.730002,-5.829997
275605,Lalla Sfia,pleiades,roman_republic,https://pleiades.stoa.org/places/275605,https://pleiades.stoa.org/places/275605,-30,300,0,False,fort,33.96003,-5.62999
275606,Bou Hellou,pleiades,roman_republic,https://pleiades.stoa.org/places/275606,https://pleiades.stoa.org/places/275606,-30,2099,0,False,"settlement, settlement-modern",34.15041,-4.39922
275607,Bou Rebaa,pleiades,roman_republic,https://pleiades.stoa.org/places/275607,https://pleiades.stoa.org/places/275607,-30,300,0,False,fort,34.059561,-5.754021
275608,Briej,pleiades,roman_republic,https://pleiades.stoa.org/places/275608,https://pleiades.stoa.org/places/275608,-30,640,0,False,fort,35.572512,-5.844739
275613,Cephisis,pleiades,roman_republic,https://pleiades.stoa.org/places/275613,https://pleiades.stoa.org/places/275613,-550,2100,0,False,lake,35.6046892418,-5.9544297479
275614,Columnae Herculis,pleiades,roman_republic,https://pleiades.stoa.org/places/275614,https://pleiades.stoa.org/places/275614,-750,300,0,False,cape,36.0000788333,-5.37119316667
275615,Cottae?,pleiades,roman_republic,https://pleiades.stoa.org/places/275615,https://pleiades.stoa.org/places/275615,-750,300,0,False,settlement,35.79,-5.93005
275617,Dar bel Amri,pleiades,roman_republic,https://pleiades.stoa.org/places/275617,https://pleiades.stoa.org/places/275617,-30,300,0,False,"tower-defensive, defensive-wall, fort-2",34.1843559816,-5.9608679578
275618,Dar Dqios,pleiades,roman_republic,https://pleiades.stoa.org/places/275618,https://pleiades.stoa.org/places/275618,-30,300,0,False,fort,33.946431,-6.793405
275619,Dar Sied,pleiades,roman_republic,https://pleiades.stoa.org/places/275619,https://pleiades.stoa.org/places/275619,-30,640,0,False,villa,35.48,-5.98
275620,Djouima,pleiades,roman_republic,https://pleiades.stoa.org/places/275620,https://pleiades.stoa.org/places/275620,-330,300,0,False,settlement,35.245358,-6.11995
275621,Douar Naasa,pleiades,roman_republic,https://pleiades.stoa.org/places/275621,https://pleiades.stoa.org/places/275621,-30,300,0,False,villa,34.213874,-5.921407
275623,Emsa,pleiades,roman_republic,https://pleiades.stoa.org/places/275623,https://pleiades.stoa.org/places/275623,-330,300,0,False,settlement,35.513781,-5.23159
275624,Ermaia Akra,pleiades,roman_republic,https://pleiades.stoa.org/places/275624,https://pleiades.stoa.org/places/275624,-330,300,0,False,"production, mine",35.523027,-6.005891
275626,Ferme Biarnay,pleiades,roman_republic,https://pleiades.stoa.org/places/275626,https://pleiades.stoa.org/places/275626,-30,300,0,False,villa,34.447825,-5.661983
275627,Ferme Priou,pleiades,roman_republic,https://pleiades.stoa.org/places/275627,https://pleiades.stoa.org/places/275627,-30,300,0,False,settlement,34.259999,-5.928089
275628,Fghaina,pleiades,roman_republic,https://pleiades.stoa.org/places/275628,https://pleiades.stoa.org/places/275628,-30,300,0,False,fort,34.334787,-6.490905
275629,Frigidae,pleiades,roman_republic,https://pleiades.stoa.org/places/275629,https://pleiades.stoa.org/places/275629,-30,640,0,False,"fort-2, station",34.96001,-6.150002
275631,el Gaada,pleiades,roman_republic,https://pleiades.stoa.org/places/275631,https://pleiades.stoa.org/places/275631,-30,300,0,False,fort-2,34.1166616043,-5.67908249656
275632,Gadadra,pleiades,roman_republic,https://pleiades.stoa.org/places/275632,https://pleiades.stoa.org/places/275632,-30,300,0,False,villa,34.499464,-6.133148
275634,Gandori,pleiades,roman_republic,https://pleiades.stoa.org/places/275634,https://pleiades.stoa.org/places/275634,-30,640,0,False,fort,35.774585,-5.768108
275635,el Gour,pleiades,roman_republic,https://pleiades.stoa.org/places/275635,https://pleiades.stoa.org/places/275635,-30,640,0,False,tumulus,33.850361177,-5.30874165173
275637,Hafra Ennaga,pleiades,roman_republic,https://pleiades.stoa.org/places/275637,https://pleiades.stoa.org/places/275637,-30,300,0,False,villa,34.182376,-5.494466
275639,Heras? (island),pleiades,roman_republic,https://pleiades.stoa.org/places/275639,https://pleiades.stoa.org/places/275639,-330,2100,0,False,island,36.0040912,-5.6097877
275640,Heras? (island),pleiades,roman_republic,https://pleiades.stoa.org/places/275640,https://pleiades.stoa.org/places/275640,-330,2100,0,False,island,35.9139668681,-5.4186196544
275641,Hjar Zerbotta,pleiades,roman_republic,https://pleiades.stoa.org/places/275641,https://pleiades.stoa.org/places/275641,-30,640,0,False,fort,35.579937,-5.852436
275646,Jebel bou Draa,pleiades,roman_republic,https://pleiades.stoa.org/places/275646,https://pleiades.stoa.org/places/275646,-30,300,0,False,fort,34.209999,-5.699999
275647,Jouima,pleiades,roman_republic,https://pleiades.stoa.org/places/275647,https://pleiades.stoa.org/places/275647,-30,640,0,False,temple-2,35.561466,-5.845549
275650,Kaunoi,pleiades,roman_republic,https://pleiades.stoa.org/places/275650,https://pleiades.stoa.org/places/275650,-330,300,0,False,"label, people",34.0746611491,-6.18038505763
275651,Khedis,pleiades,roman_republic,https://pleiades.stoa.org/places/275651,https://pleiades.stoa.org/places/275651,-30,300,0,False,settlement,33.9894,-6.763371
275652,Kitzan,pleiades,roman_republic,https://pleiades.stoa.org/places/275652,https://pleiades.stoa.org/places/275652,-330,300,0,False,settlement,35.550581,-5.346157
275653,Kouass,pleiades,roman_republic,https://pleiades.stoa.org/places/275653,https://pleiades.stoa.org/places/275653,-330,640,0,False,settlement,35.511263,-6.005866
275654,Koudia Aicha,pleiades,roman_republic,https://pleiades.stoa.org/places/275654,https://pleiades.stoa.org/places/275654,-30,300,0,False,fort,34.045116,-5.735342
275655,Koudia bou Mimoun,pleiades,roman_republic,https://pleiades.stoa.org/places/275655,https://pleiades.stoa.org/places/275655,-330,300,0,False,fort,34.289951,-5.842998
275656,Koudia es Souma,pleiades,roman_republic,https://pleiades.stoa.org/places/275656,https://pleiades.stoa.org/places/275656,-330,640,0,False,villa,35.190895,-6.091355
275657,Koudia Fergana,pleiades,roman_republic,https://pleiades.stoa.org/places/275657,https://pleiades.stoa.org/places/275657,-30,300,0,False,fort,34.843173,-5.937707
275658,Krimda,pleiades,roman_republic,https://pleiades.stoa.org/places/275658,https://pleiades.stoa.org/places/275658,-330,640,0,False,villa,35.27,-6.07
275659,Ksar es Sghir,pleiades,roman_republic,https://pleiades.stoa.org/places/275659,https://pleiades.stoa.org/places/275659,-330,640,0,False,settlement,35.8451,-5.56309
275661,Lalla Aicha,pleiades,roman_republic,https://pleiades.stoa.org/places/275661,https://pleiades.stoa.org/places/275661,-30,300,0,False,fort,34.27642,-6.568408
275662,Lalla Yto,pleiades,roman_republic,https://pleiades.stoa.org/places/275662,https://pleiades.stoa.org/places/275662,-30,300,0,False,villa,34.34657,-6.203001
275663,Lalla Ghannama,pleiades,roman_republic,https://pleiades.stoa.org/places/275663,https://pleiades.stoa.org/places/275663,-30,640,0,False,villa,34.251619,-5.717595
275664,Lalla Rhano,pleiades,roman_republic,https://pleiades.stoa.org/places/275664,https://pleiades.stoa.org/places/275664,-330,300,0,False,tumulus,34.774512,-6.087428
275665,Laud (river),pleiades,roman_republic,https://pleiades.stoa.org/places/275665,https://pleiades.stoa.org/places/275665,-30,2100,0,False,river,35.3478673429,-5.18065888754
275666,Lixus,pleiades,roman_republic,https://pleiades.stoa.org/places/275666,https://pleiades.stoa.org/places/275666,-750,640,0,False,"settlement, archaeological-site",35.2002398464,-6.10995151281
275667,Lixus (river),pleiades,roman_republic,https://pleiades.stoa.org/places/275667,https://pleiades.stoa.org/places/275667,-750,2100,0,False,river,35.1494770304,-6.07056111654
275669,Maatga,pleiades,roman_republic,https://pleiades.stoa.org/places/275669,https://pleiades.stoa.org/places/275669,-30,300,0,False,villa,34.616666,-6.099999
275670,Macenites,pleiades,roman_republic,https://pleiades.stoa.org/places/275670,https://pleiades.stoa.org/places/275670,-30,300,0,False,"label, people",33.711367999,-5.51380254223
275671,el Marsa,pleiades,roman_republic,https://pleiades.stoa.org/places/275671,https://pleiades.stoa.org/places/275671,-30,640,0,False,settlement,35.901179,-5.452453
275672,Masikes,pleiades,roman_republic,https://pleiades.stoa.org/places/275672,https://pleiades.stoa.org/places/275672,-330,300,0,False,"label, people",35.2326937115,-5.67998524942
275673,Mauretania Tingitana (region),pleiades,roman_republic,https://pleiades.stoa.org/places/275673,https://pleiades.stoa.org/places/275673,-30,640,0,False,"region, label",34.7265243905,-5.49898975065
275674,Maurusii,pleiades,roman_republic,https://pleiades.stoa.org/places/275674,https://pleiades.stoa.org/places/275674,-30,640,0,False,"region, people",34.7364640526,-4.89790810853
275675,Mechra Sfa,pleiades,roman_republic,https://pleiades.stoa.org/places/275675,https://pleiades.stoa.org/places/275675,-30,300,0,False,villa,34.180499,-5.70059
275677,Merja Touila,pleiades,roman_republic,https://pleiades.stoa.org/places/275677,https://pleiades.stoa.org/places/275677,-30,300,0,False,villa,34.350002,-6.450001
275678,Mestroila,pleiades,roman_republic,https://pleiades.stoa.org/places/275678,https://pleiades.stoa.org/places/275678,-30,640,0,False,fort,35.695003,-5.855711
275679,Metagonitai,pleiades,roman_republic,https://pleiades.stoa.org/places/275679,https://pleiades.stoa.org/places/275679,-30,300,0,False,"label, people",35.6428430885,-5.53016930698
275680,Mezgalef,pleiades,roman_republic,https://pleiades.stoa.org/places/275680,https://pleiades.stoa.org/places/275680,-330,300,0,False,villa,35.289999,-6.09
275681,MM18,pleiades,roman_republic,https://pleiades.stoa.org/places/275681,https://pleiades.stoa.org/places/275681,-30,300,0,False,settlement,34.799334,-6.127611
275682,Mogogha,pleiades,roman_republic,https://pleiades.stoa.org/places/275682,https://pleiades.stoa.org/places/275682,-330,-30,0,False,tumulus,35.745296,-5.76978
275683,Mzora,pleiades,roman_republic,https://pleiades.stoa.org/places/275683,https://pleiades.stoa.org/places/275683,-30,640,0,False,tumulus,35.404171,-5.9439278
275685,Oppidum Novum,pleiades,roman_republic,https://pleiades.stoa.org/places/275685,https://pleiades.stoa.org/places/275685,-30,300,0,False,settlement,35.008501,-5.902791
275686,Oued Akrech,pleiades,roman_republic,https://pleiades.stoa.org/places/275686,https://pleiades.stoa.org/places/275686,-30,640,0,False,quarry,33.93,-6.799999
275687,Oued Bqader,pleiades,roman_republic,https://pleiades.stoa.org/places/275687,https://pleiades.stoa.org/places/275687,-30,300,0,False,villa,34.475742,-6.279911
275688,Ouerbikai,pleiades,roman_republic,https://pleiades.stoa.org/places/275688,https://pleiades.stoa.org/places/275688,-30,300,0,False,"label, people",34.4292575133,-5.5547691952
275689,Oueroueis,pleiades,roman_republic,https://pleiades.stoa.org/places/275689,https://pleiades.stoa.org/places/275689,-30,300,0,False,"label, people",34.5074098692,-5.58355181179
275691,Rekada,pleiades,roman_republic,https://pleiades.stoa.org/places/275691,https://pleiades.stoa.org/places/275691,-330,640,0,False,villa,35.209999,-6.13
275692,el Rhorba,pleiades,roman_republic,https://pleiades.stoa.org/places/275692,https://pleiades.stoa.org/places/275692,-30,640,0,False,fort,35.728292,-5.758288
275693,Rirha,pleiades,roman_republic,https://pleiades.stoa.org/places/275693,https://pleiades.stoa.org/places/275693,-30,300,0,False,settlement,34.310912,-5.932459
275694,er Rmel,pleiades,roman_republic,https://pleiades.stoa.org/places/275694,https://pleiades.stoa.org/places/275694,-30,640,0,False,settlement,35.89005,-5.319788
275696,Sala,pleiades,roman_republic,https://pleiades.stoa.org/places/275696,https://pleiades.stoa.org/places/275696,-330,2100,0,False,settlement,34.006821,-6.821498
275697,Salat (river),pleiades,roman_republic,https://pleiades.stoa.org/places/275697,https://pleiades.stoa.org/places/275697,-30,2100,0,False,river,33.3972079986,-6.35600802933
275698,Salenses,pleiades,roman_republic,https://pleiades.stoa.org/places/275698,https://pleiades.stoa.org/places/275698,-30,300,0,False,"label, people",34.107804744,-6.61802723853
275699,Sania,pleiades,roman_republic,https://pleiades.stoa.org/places/275699,https://pleiades.stoa.org/places/275699,-30,640,0,False,production,35.732191,-5.341957
275700,Sebaa Rjel,pleiades,roman_republic,https://pleiades.stoa.org/places/275700,https://pleiades.stoa.org/places/275700,-30,300,0,False,fort,34.315898,-6.514451
275701,Sedra Mehara,pleiades,roman_republic,https://pleiades.stoa.org/places/275701,https://pleiades.stoa.org/places/275701,-30,300,0,False,fort,34.051498,-5.649837
275702,Seguia Faraoun,pleiades,roman_republic,https://pleiades.stoa.org/places/275702,https://pleiades.stoa.org/places/275702,-30,300,0,False,fort,33.987546,-6.884904
275703,Septem,pleiades,roman_republic,https://pleiades.stoa.org/places/275703,https://pleiades.stoa.org/places/275703,-30,2100,0,False,"settlement, port",35.888245,-5.316583
275704,Septem Fratres Montes,pleiades,roman_republic,https://pleiades.stoa.org/places/275704,https://pleiades.stoa.org/places/275704,-30,2100,0,False,mountain,35.8989516,-5.4129554
275705,Sidi Abderahim,pleiades,roman_republic,https://pleiades.stoa.org/places/275705,https://pleiades.stoa.org/places/275705,-30,300,0,False,settlement,35.208551,-6.146672
275706,Sidi Abdeslam,pleiades,roman_republic,https://pleiades.stoa.org/places/275706,https://pleiades.stoa.org/places/275706,-330,300,0,False,settlement,35.574779,-5.259559
275707,Si Ahmed Cherif,pleiades,roman_republic,https://pleiades.stoa.org/places/275707,https://pleiades.stoa.org/places/275707,-30,640,0,False,villa,35.448322,-5.847043
275708,Sidi Ahmed,pleiades,roman_republic,https://pleiades.stoa.org/places/275708,https://pleiades.stoa.org/places/275708,-30,300,0,False,unknown,34.3426452687,-5.97206146571
275709,Sidi Allal el Bahraoui,pleiades,roman_republic,https://pleiades.stoa.org/places/275709,https://pleiades.stoa.org/places/275709,-330,300,0,False,tumulus,34.005992,-6.527652
275710,Sidi Amar ben Azouz,pleiades,roman_republic,https://pleiades.stoa.org/places/275710,https://pleiades.stoa.org/places/275710,-30,300,0,False,fort,33.930403,-5.632851
275711,Sidi bou Hayel,pleiades,roman_republic,https://pleiades.stoa.org/places/275711,https://pleiades.stoa.org/places/275711,-30,640,0,False,settlement,35.780909,-5.360689
275712,Sidi el Mekki,pleiades,roman_republic,https://pleiades.stoa.org/places/275712,https://pleiades.stoa.org/places/275712,-30,2099,0,False,"villa, settlement-modern",34.14842,-5.955336
275713,Sidi el Mokffi,pleiades,roman_republic,https://pleiades.stoa.org/places/275713,https://pleiades.stoa.org/places/275713,-30,300,0,False,unknown,34.25,-5.75
275714,Sidi Embarek,pleiades,roman_republic,https://pleiades.stoa.org/places/275714,https://pleiades.stoa.org/places/275714,-30,300,0,False,fort,34.184011,-5.620215
275715,Sidi Hassine,pleiades,roman_republic,https://pleiades.stoa.org/places/275715,https://pleiades.stoa.org/places/275715,-30,300,0,False,fort,33.046196,-5.92349
275716,Sidi Kacem,pleiades,roman_republic,https://pleiades.stoa.org/places/275716,https://pleiades.stoa.org/places/275716,-30,640,0,False,villa,35.707377,-5.943195
275717,Sidi Larbi Boujema,pleiades,roman_republic,https://pleiades.stoa.org/places/275717,https://pleiades.stoa.org/places/275717,-30,2099,0,False,settlement,34.530891,-5.944819
275718,Sidi Mbark,pleiades,roman_republic,https://pleiades.stoa.org/places/275718,https://pleiades.stoa.org/places/275718,-30,300,0,False,settlement,34.474925,-6.375247
275719,Sidi Mohammed ben Naseur,pleiades,roman_republic,https://pleiades.stoa.org/places/275719,https://pleiades.stoa.org/places/275719,-30,300,0,False,villa,34.308691,-5.997415
275720,Sidi Moussa,pleiades,roman_republic,https://pleiades.stoa.org/places/275720,https://pleiades.stoa.org/places/275720,-30,1999,0,False,settlement,34.052133,-5.723152
275721,Sidi Said,pleiades,roman_republic,https://pleiades.stoa.org/places/275721,https://pleiades.stoa.org/places/275721,-30,1999,0,False,settlement,33.891331,-5.574834
275722,Sidi Slimane,pleiades,roman_republic,https://pleiades.stoa.org/places/275722,https://pleiades.stoa.org/places/275722,-330,-30,0,False,tumulus,34.263614,-5.921704
275723,Sokossioi,pleiades,roman_republic,https://pleiades.stoa.org/places/275723,https://pleiades.stoa.org/places/275723,-30,300,0,False,"label, people",35.2688345672,-5.0755883229
275724,Soloeis/Ampelusia Pr.,pleiades,roman_republic,https://pleiades.stoa.org/places/275724,https://pleiades.stoa.org/places/275724,-30,2100,0,False,cape,35.7910308,-5.9236482
275725,Souk el Arba,pleiades,roman_republic,https://pleiades.stoa.org/places/275725,https://pleiades.stoa.org/places/275725,-30,2099,0,False,"fort-2, settlement, bath",34.692414,-5.997725
275726,Souk Jema el Haouafa,pleiades,roman_republic,https://pleiades.stoa.org/places/275726,https://pleiades.stoa.org/places/275726,-30,300,0,False,settlement,34.459469,-5.929456
275729,Tabernae,pleiades,roman_republic,https://pleiades.stoa.org/places/275729,https://pleiades.stoa.org/places/275729,-30,640,0,False,fort,35.333689,-5.981627
275731,Tahadart,pleiades,roman_republic,https://pleiades.stoa.org/places/275731,https://pleiades.stoa.org/places/275731,-330,640,0,False,"production, mine",35.572398,-5.990335
275732,Tamuda,pleiades,roman_republic,https://pleiades.stoa.org/places/275732,https://pleiades.stoa.org/places/275732,-330,640,0,False,settlement,35.5591446771,-5.41101042002
275733,Tamuda (river),pleiades,roman_republic,https://pleiades.stoa.org/places/275733,https://pleiades.stoa.org/places/275733,-30,2100,0,False,"river, mouth",35.5193103364,-5.44788879467
275734,Thamusida,pleiades,roman_republic,https://pleiades.stoa.org/places/275734,https://pleiades.stoa.org/places/275734,-30,300,0,False,"fort-2, fortified-settlement, fort, settlement",34.3349563869,-6.49034690299
275736,Tingi,pleiades,roman_republic,https://pleiades.stoa.org/places/275736,https://pleiades.stoa.org/places/275736,-550,1923,0,False,"settlement, port",35.787546,-5.8102335
275737,Tocolosida,pleiades,roman_republic,https://pleiades.stoa.org/places/275737,https://pleiades.stoa.org/places/275737,-30,300,0,False,fort,34.0380963356,-5.58118179921
275738,Tremuli,pleiades,roman_republic,https://pleiades.stoa.org/places/275738,https://pleiades.stoa.org/places/275738,-30,640,0,False,station,34.8205112518,-5.95147142267
275740,Volubilis,pleiades,roman_republic,https://pleiades.stoa.org/places/275740,https://pleiades.stoa.org/places/275740,-330,640,0,False,"settlement, archaeological-site",34.0728746739,-5.55486856497
275742,Zegrenses,pleiades,roman_republic,https://pleiades.stoa.org/places/275742,https://pleiades.stoa.org/places/275742,-30,300,0,False,"label, people",34.6872016509,-5.81530015419
275743,Zilia (river),pleiades,roman_republic,https://pleiades.stoa.org/places/275743,https://pleiades.stoa.org/places/275743,-30,300,0,False,river,35.5619212966,-5.94659813337
275744,Zilil/Zilis,pleiades,roman_republic,https://pleiades.stoa.org/places/275744,https://pleiades.stoa.org/places/275744,-30,640,0,False,settlement,35.52228785,-5.91557325
276332,Untitled,pleiades,roman_republic,https://pleiades.stoa.org/places/276332,https://pleiades.stoa.org/places/276332,-30,640,0,False,quarry,34.25,-5.25
277087,Untitled,pleiades,roman_republic,https://pleiades.stoa.org/places/277087,https://pleiades.stoa.org/places/277087,-30,640,0,False,road,34.75,-5.5
277088,Road Segment: Ad Mercuri → Oppidum Novum,pleiades,roman_republic,https://pleiades.stoa.org/places/277088,https://pleiades.stoa.org/places/277088,-30,640,0,False,road,34.75,-5.5
277089,Untitled,pleiades,roman_republic,https://pleiades.stoa.org/places/277089,https://pleiades.stoa.org/places/277089,-30,640,0,False,road,34.75,-5.5
277090,Untitled,pleiades,roman_republic,https://pleiades.stoa.org/places/277090,https://pleiades.stoa.org/places/277090,-30,640,0,False,road,34.75,-5.5
277091,Untitled,pleiades,roman_republic,https://pleiades.stoa.org/places/277091,https://pleiades.stoa.org/places/277091,-30,640,0,False,road,34.75,-5.5
277092,Untitled,pleiades,roman_republic,https://pleiades.stoa.org/places/277092,https://pleiades.stoa.org/places/277092,-30,640,0,False,road,34.75,-5.5
277093,Untitled,pleiades,roman_republic,https://pleiades.stoa.org/places/277093,https://pleiades.stoa.org/places/277093,-30,640,0,False,road,34.75,-5.5
277094,Untitled,pleiades,roman_republic,https://pleiades.stoa.org/places/277094,https://pleiades.stoa.org/places/277094,-30,640,0,False,road,34.75,-5.5
277095,Untitled,pleiades,roman_republic,https://pleiades.stoa.org/places/277095,https://pleiades.stoa.org/places/277095,-30,640,0,False,road,34.75,-5.5
277842,Untitled,pleiades,roman_republic,https://pleiades.stoa.org/places/277842,https://pleiades.stoa.org/places/277842,-30,300,0,False,feature,35.75,-5.75
277843,Untitled,pleiades,roman_republic,https://pleiades.stoa.org/places/277843,https://pleiades.stoa.org/places/277843,-30,300,0,False,feature,35.75,-5.75
277844,Untitled,pleiades,roman_republic,https://pleiades.stoa.org/places/277844,https://pleiades.stoa.org/places/277844,-30,300,0,False,feature,35.75,-5.75
277845,Untitled,pleiades,roman_republic,https://pleiades.stoa.org/places/277845,https://pleiades.stoa.org/places/277845,-30,300,0,False,settlement,35.75,-5.75
277846,Untitled,pleiades,roman_republic,https://pleiades.stoa.org/places/277846,https://pleiades.stoa.org/places/277846,-30,300,0,False,villa,35.555497,-5.390233
277847,Untitled,pleiades,roman_republic,https://pleiades.stoa.org/places/277847,https://pleiades.stoa.org/places/277847,-30,640,0,False,"settlement, villa",35.254559,-6.105608
277848,Rural settlement between Oppidum Novum and Arbaoua,pleiades,roman_republic,https://pleiades.stoa.org/places/277848,https://pleiades.stoa.org/places/277848,-30,300,0,False,settlement,34.9483855689,-5.91225216084
277849,Unnamed rural settlement near Tremuli,pleiades,roman_republic,https://pleiades.stoa.org/places/277849,https://pleiades.stoa.org/places/277849,-30,300,0,False,settlement,34.8205112518,-5.95147142267
277850,Unnamed rural settlement north of Souk el Arba,pleiades,roman_republic,https://pleiades.stoa.org/places/277850,https://pleiades.stoa.org/places/277850,-30,300,0,False,settlement,34.752451478,-5.97941392342
277851,Untitled,pleiades,roman_republic,https://pleiades.stoa.org/places/277851,https://pleiades.stoa.org/places/277851,-330,300,0,False,feature,34.25,-5.75
277852,Untitled,pleiades,roman_republic,https://pleiades.stoa.org/places/277852,https://pleiades.stoa.org/places/277852,-30,300,0,False,"fort-2, settlement",33.998055,-5.520285
278633,(Vo)pisciana,pleiades,roman_republic,https://pleiades.stoa.org/places/278633,https://pleiades.stoa.org/places/278633,-30,1999,0,False,"settlement, station",34.686239,-5.998299
278634,Pyron Pedion,pleiades,roman_republic,https://pleiades.stoa.org/places/278634,https://pleiades.stoa.org/places/278634,-30,2099,0,False,"unlocated, plain",34.5349907926,-5.97666945155
285392,Ad Dracones?,pleiades,roman_republic,https://pleiades.stoa.org/places/285392,https://pleiades.stoa.org/places/285392,-30,640,0,False,station,35.3826,-0.957499
285393,Ad Fratres?,pleiades,roman_republic,https://pleiades.stoa.org/places/285393,https://pleiades.stoa.org/places/285393,-30,300,0,False,station,35.101893,-1.858203
285395,Agueneb,pleiades,roman_republic,https://pleiades.stoa.org/places/285395,https://pleiades.stoa.org/places/285395,-30,300,0,False,temple-2,33.907941,1.369109
285396,Ain Balloul,pleiades,roman_republic,https://pleiades.stoa.org/places/285396,https://pleiades.stoa.org/places/285396,-30,300,0,False,fort,34.985836,0.470283
285397,Ain Bénia,pleiades,roman_republic,https://pleiades.stoa.org/places/285397,https://pleiades.stoa.org/places/285397,-30,300,0,False,villa,35.103058,1.693235
285398,Ain bent es Soltane,pleiades,roman_republic,https://pleiades.stoa.org/places/285398,https://pleiades.stoa.org/places/285398,-30,300,0,False,villa,34.849815,-1.032855
285399,Ain ed Draham,pleiades,roman_republic,https://pleiades.stoa.org/places/285399,https://pleiades.stoa.org/places/285399,-30,300,0,False,settlement,34.98361,1.116953
285400,Ain el Aneb,pleiades,roman_republic,https://pleiades.stoa.org/places/285400,https://pleiades.stoa.org/places/285400,-30,640,0,False,settlement,35.576,1.824867
285401,Ain el Bridj,pleiades,roman_republic,https://pleiades.stoa.org/places/285401,https://pleiades.stoa.org/places/285401,-30,640,0,False,settlement,35.16668,-1.149976
285402,Ain el Merselia,pleiades,roman_republic,https://pleiades.stoa.org/places/285402,https://pleiades.stoa.org/places/285402,-30,300,0,False,settlement,35.993788,1.142576
285403,Ain Ouaba,pleiades,roman_republic,https://pleiades.stoa.org/places/285403,https://pleiades.stoa.org/places/285403,-30,300,0,False,settlement,35.561543,1.710039
285404,Ain Sarb,pleiades,roman_republic,https://pleiades.stoa.org/places/285404,https://pleiades.stoa.org/places/285404,-30,640,0,False,villa,35.349831,1.116894
285405,Ain Smir,pleiades,roman_republic,https://pleiades.stoa.org/places/285405,https://pleiades.stoa.org/places/285405,-30,300,0,False,fort,35.021172,-0.229798
285406,Ain Tekbalet,pleiades,roman_republic,https://pleiades.stoa.org/places/285406,https://pleiades.stoa.org/places/285406,-30,300,0,False,mine-2,35.110303,-1.191519
285407,Ain Tissemsil,pleiades,roman_republic,https://pleiades.stoa.org/places/285407,https://pleiades.stoa.org/places/285407,-30,300,0,False,fort,35.610352,1.811103
285408,Ain Toukria,pleiades,roman_republic,https://pleiades.stoa.org/places/285408,https://pleiades.stoa.org/places/285408,-30,640,0,False,fort,35.666662,1.966672
285409,Akra (island),pleiades,roman_republic,https://pleiades.stoa.org/places/285409,https://pleiades.stoa.org/places/285409,-750,2100,0,False,island,35.3222503844,-1.47997385743
285410,Akouensioi?,pleiades,roman_republic,https://pleiades.stoa.org/places/285410,https://pleiades.stoa.org/places/285410,-30,640,0,False,"label, people",35.9670267595,1.9272610543
285411,Ala Miliaria/Tigit,pleiades,roman_republic,https://pleiades.stoa.org/places/285411,https://pleiades.stoa.org/places/285411,-30,640,0,False,settlement,35.099704,0.250236
285412,Albulae/Praesidium Sufative,pleiades,roman_republic,https://pleiades.stoa.org/places/285412,https://pleiades.stoa.org/places/285412,-30,2099,0,False,settlement,35.301602,-1.144788
285413,Altava,pleiades,roman_republic,https://pleiades.stoa.org/places/285413,https://pleiades.stoa.org/places/285413,-30,640,0,False,settlement,34.903623,-1.031484
285415,Aquae Sirenses,pleiades,roman_republic,https://pleiades.stoa.org/places/285415,https://pleiades.stoa.org/places/285415,-30,640,0,False,settlement,35.31646,-0.049719
285416,Argoub Rouiba,pleiades,roman_republic,https://pleiades.stoa.org/places/285416,https://pleiades.stoa.org/places/285416,-30,300,0,False,settlement,35.309358,-0.565538
285418,Ballene Praesidium,pleiades,roman_republic,https://pleiades.stoa.org/places/285418,https://pleiades.stoa.org/places/285418,-30,300,0,False,settlement,35.721173,0.352432
285419,Bavares,pleiades,roman_republic,https://pleiades.stoa.org/places/285419,https://pleiades.stoa.org/places/285419,-330,640,0,False,"label, people",35.2273824863,0.848246334671
285420,el Bayadh,pleiades,roman_republic,https://pleiades.stoa.org/places/285420,https://pleiades.stoa.org/places/285420,-30,300,0,False,fort,33.689614,1.015099
285422,Camarata?,pleiades,roman_republic,https://pleiades.stoa.org/places/285422,https://pleiades.stoa.org/places/285422,-30,300,0,False,settlement,35.346511,-1.298801
285423,Canarii?,pleiades,roman_republic,https://pleiades.stoa.org/places/285423,https://pleiades.stoa.org/places/285423,-330,640,0,False,"label, people",33.6091210787,-3.27263232025
285424,Castra Nova,pleiades,roman_republic,https://pleiades.stoa.org/places/285424,https://pleiades.stoa.org/places/285424,-30,640,0,False,settlement,35.590223,0.069577
285425,Castra Puer(or)um,pleiades,roman_republic,https://pleiades.stoa.org/places/285425,https://pleiades.stoa.org/places/285425,-550,640,0,False,settlement,35.70429,-0.896073
285426,Cen(..)?,pleiades,roman_republic,https://pleiades.stoa.org/places/285426,https://pleiades.stoa.org/places/285426,-30,640,0,False,fort,35.01676,1.099985
285428,Cohors Breucorum/Kaputurbe,pleiades,roman_republic,https://pleiades.stoa.org/places/285428,https://pleiades.stoa.org/places/285428,-30,300,0,False,fort,35.087353,0.620137
285430,Columnata,pleiades,roman_republic,https://pleiades.stoa.org/places/285430,https://pleiades.stoa.org/places/285430,-30,640,0,False,settlement,35.470067,1.521582
285432,Damous,pleiades,roman_republic,https://pleiades.stoa.org/places/285432,https://pleiades.stoa.org/places/285432,-30,640,0,False,settlement,35.02711,-1.556147
285433,Derrag,pleiades,roman_republic,https://pleiades.stoa.org/places/285433,https://pleiades.stoa.org/places/285433,-30,300,0,False,fort,35.907459,2.388442
285434,Djebel Orousse,pleiades,roman_republic,https://pleiades.stoa.org/places/285434,https://pleiades.stoa.org/places/285434,-30,300,0,False,quarry,35.866663,-0.416673
285436,Dra el Remel,pleiades,roman_republic,https://pleiades.stoa.org/places/285436,https://pleiades.stoa.org/places/285436,-30,300,0,False,settlement,35.006151,0.095348
285437,Dryitai?,pleiades,roman_republic,https://pleiades.stoa.org/places/285437,https://pleiades.stoa.org/places/285437,-30,300,0,False,"label, people",35.2698167435,0.35993966267
285439,Eloulioi?,pleiades,roman_republic,https://pleiades.stoa.org/places/285439,https://pleiades.stoa.org/places/285439,-30,300,0,False,"label, people",35.1326537579,-0.455624109784
285442,Fortassa,pleiades,roman_republic,https://pleiades.stoa.org/places/285442,https://pleiades.stoa.org/places/285442,-30,300,0,False,settlement,35.45602,0.68479
285444,Gadaum Castra,pleiades,roman_republic,https://pleiades.stoa.org/places/285444,https://pleiades.stoa.org/places/285444,-30,300,0,False,settlement,35.929412,0.824593
285445,Gent,pleiades,roman_republic,https://pleiades.stoa.org/places/285445,https://pleiades.stoa.org/places/285445,-30,300,0,False,settlement,35.365217,-0.35433
285446,Ghar Roubane,pleiades,roman_republic,https://pleiades.stoa.org/places/285446,https://pleiades.stoa.org/places/285446,-30,300,0,False,mine-2,34.602227,-1.778333
285447,Guetna,pleiades,roman_republic,https://pleiades.stoa.org/places/285447,https://pleiades.stoa.org/places/285447,-30,640,0,False,settlement,35.392496,-0.057595
285449,Hadjar Ouâghef,pleiades,roman_republic,https://pleiades.stoa.org/places/285449,https://pleiades.stoa.org/places/285449,-30,300,0,False,settlement,34.980085,-1.361854
285450,Herpeditanoi,pleiades,roman_republic,https://pleiades.stoa.org/places/285450,https://pleiades.stoa.org/places/285450,-330,640,0,False,"label, people",35.0737766423,-2.81881108355
285452,Inkermann,pleiades,roman_republic,https://pleiades.stoa.org/places/285452,https://pleiades.stoa.org/places/285452,-30,300,0,False,settlement,35.959185,0.913777
285455,Kansade,pleiades,roman_republic,https://pleiades.stoa.org/places/285455,https://pleiades.stoa.org/places/285455,-30,300,0,False,settlement,35.551541,1.638242
285456,Kaputtasaccora,pleiades,roman_republic,https://pleiades.stoa.org/places/285456,https://pleiades.stoa.org/places/285456,-30,300,0,False,settlement,34.947302,-0.719489
285458,Kerkab,pleiades,roman_republic,https://pleiades.stoa.org/places/285458,https://pleiades.stoa.org/places/285458,-30,300,0,False,settlement,34.988179,0.214719
285460,el Khadra,pleiades,roman_republic,https://pleiades.stoa.org/places/285460,https://pleiades.stoa.org/places/285460,-30,300,0,False,fort,34.060874,0.576068
285461,el Kherba,pleiades,roman_republic,https://pleiades.stoa.org/places/285461,https://pleiades.stoa.org/places/285461,-30,300,0,False,settlement,35.383282,1.916545
285462,Kherba Achlef,pleiades,roman_republic,https://pleiades.stoa.org/places/285462,https://pleiades.stoa.org/places/285462,-30,640,0,False,settlement,35.53838,1.36428
285463,Kherba des Aouissat,pleiades,roman_republic,https://pleiades.stoa.org/places/285463,https://pleiades.stoa.org/places/285463,-30,640,0,False,settlement,35.44824,1.423835
285465,Kherba Oum el Adame,pleiades,roman_republic,https://pleiades.stoa.org/places/285465,https://pleiades.stoa.org/places/285465,-30,300,0,False,settlement,35.494891,1.806046
285466,Koliaa,pleiades,roman_republic,https://pleiades.stoa.org/places/285466,https://pleiades.stoa.org/places/285466,-30,300,0,False,settlement,35.012108,0.038515
285467,Koudiat en Nessera,pleiades,roman_republic,https://pleiades.stoa.org/places/285467,https://pleiades.stoa.org/places/285467,-30,640,0,False,settlement,34.672821,-1.441871
285468,Koudiat er Roum,pleiades,roman_republic,https://pleiades.stoa.org/places/285468,https://pleiades.stoa.org/places/285468,-30,640,0,False,settlement,34.675884,-1.470323
285469,Koudiat Lakdar,pleiades,roman_republic,https://pleiades.stoa.org/places/285469,https://pleiades.stoa.org/places/285469,-30,300,0,False,settlement,35.580625,-0.913275
285470,Koudiat M'rakab,pleiades,roman_republic,https://pleiades.stoa.org/places/285470,https://pleiades.stoa.org/places/285470,-30,300,0,False,tomb,35.65983,1.817621
285471,Koudiat Sidi ben Beha,pleiades,roman_republic,https://pleiades.stoa.org/places/285471,https://pleiades.stoa.org/places/285471,-30,300,0,False,fort,35.07079,1.298818
285473,Ksar Hannoun,pleiades,roman_republic,https://pleiades.stoa.org/places/285473,https://pleiades.stoa.org/places/285473,-30,300,0,False,settlement,35.015228,-1.177969
285475,Laturus Sinus,pleiades,roman_republic,https://pleiades.stoa.org/places/285475,https://pleiades.stoa.org/places/285475,-30,300,0,False,water-open,35.5,-0.5
285476,Lemnis?,pleiades,roman_republic,https://pleiades.stoa.org/places/285476,https://pleiades.stoa.org/places/285476,-30,300,0,False,settlement,35.073106,-2.102887
285477,Lucu,pleiades,roman_republic,https://pleiades.stoa.org/places/285477,https://pleiades.stoa.org/places/285477,-30,300,0,False,fort,34.950649,-0.104177
285480,Massaesylii?,pleiades,roman_republic,https://pleiades.stoa.org/places/285480,https://pleiades.stoa.org/places/285480,-30,640,0,False,"label, people",35.4963826667,-0.0114311701483
285482,Mauretania Caesariensis,pleiades,roman_republic,https://pleiades.stoa.org/places/285482,https://pleiades.stoa.org/places/285482,-30,640,0,False,province-2,36.740851,5.057965
285484,Melanogaitouloi?,pleiades,roman_republic,https://pleiades.stoa.org/places/285484,https://pleiades.stoa.org/places/285484,-330,640,0,False,"label, people",34.1406527226,0.638118680889
285485,el Mendjel el Abiod,pleiades,roman_republic,https://pleiades.stoa.org/places/285485,https://pleiades.stoa.org/places/285485,-30,300,0,False,settlement,35.733325,2.133347
285486,Merhassel,pleiades,roman_republic,https://pleiades.stoa.org/places/285486,https://pleiades.stoa.org/places/285486,-30,300,0,False,settlement,35.65138,1.470047
285487,Mersa Madakh,pleiades,roman_republic,https://pleiades.stoa.org/places/285487,https://pleiades.stoa.org/places/285487,-550,-30,0,False,settlement,35.636708,-1.061261
285488,Mina,pleiades,roman_republic,https://pleiades.stoa.org/places/285488,https://pleiades.stoa.org/places/285488,-30,640,0,False,settlement,35.737087,0.559522
285490,Misserghin,pleiades,roman_republic,https://pleiades.stoa.org/places/285490,https://pleiades.stoa.org/places/285490,-30,640,0,False,settlement,35.62345,-0.734433
285491,Moulouya (river),pleiades,roman_republic,https://pleiades.stoa.org/places/285491,https://pleiades.stoa.org/places/285491,-30,2100,0,False,river,33.6703284089,-3.75673599222
285493,Nakmousioi?,pleiades,roman_republic,https://pleiades.stoa.org/places/285493,https://pleiades.stoa.org/places/285493,-30,300,0,False,"label, people",35.3629671792,1.30100904118
285494,Nigritae,pleiades,roman_republic,https://pleiades.stoa.org/places/285494,https://pleiades.stoa.org/places/285494,-330,640,0,False,"label, people",33.6816201934,0.397305098789
285495,Numerus Syrorum,pleiades,roman_republic,https://pleiades.stoa.org/places/285495,https://pleiades.stoa.org/places/285495,-30,640,0,False,fort-2,34.845418,-1.727133
285497,Oued Ferdja,pleiades,roman_republic,https://pleiades.stoa.org/places/285497,https://pleiades.stoa.org/places/285497,-30,300,0,False,settlement,35.064095,1.040647
285498,Oued Haddad,pleiades,roman_republic,https://pleiades.stoa.org/places/285498,https://pleiades.stoa.org/places/285498,-30,300,0,False,settlement,35.378611,0.525803
285499,Oukki,pleiades,roman_republic,https://pleiades.stoa.org/places/285499,https://pleiades.stoa.org/places/285499,-30,300,0,False,villa,35.543343,1.462193
285501,Pomaria,pleiades,roman_republic,https://pleiades.stoa.org/places/285501,https://pleiades.stoa.org/places/285501,-30,1923,0,False,settlement,34.879198,-1.315291
285502,Portus Divinus,pleiades,roman_republic,https://pleiades.stoa.org/places/285502,https://pleiades.stoa.org/places/285502,-30,300,0,False,settlement,35.705063,-0.637317
285503,Portus Magnus,pleiades,roman_republic,https://pleiades.stoa.org/places/285503,https://pleiades.stoa.org/places/285503,-550,300,0,False,"settlement, port",35.807917,-0.266018
285504,Portus Sigensis,pleiades,roman_republic,https://pleiades.stoa.org/places/285504,https://pleiades.stoa.org/places/285504,-550,640,0,False,"settlement, port",35.29689,-1.46751
285509,Regiae,pleiades,roman_republic,https://pleiades.stoa.org/places/285509,https://pleiades.stoa.org/places/285509,-30,640,0,False,settlement,35.456691,-0.61879
285510,Rouahia,pleiades,roman_republic,https://pleiades.stoa.org/places/285510,https://pleiades.stoa.org/places/285510,-30,300,0,False,settlement,35.530495,1.020486
285512,Rusaddir,pleiades,roman_republic,https://pleiades.stoa.org/places/285512,https://pleiades.stoa.org/places/285512,-330,300,0,False,"settlement, port",35.2922015,-2.938778
285514,Ste-Barbe-du-Tlélat,pleiades,roman_republic,https://pleiades.stoa.org/places/285514,https://pleiades.stoa.org/places/285514,-30,300,0,False,temple-2,35.548873,-0.447241
285515,Salsum (river),pleiades,roman_republic,https://pleiades.stoa.org/places/285515,https://pleiades.stoa.org/places/285515,-30,2099,0,False,river,35.4418489296,-1.22104192912
285516,Sidi bou Zid,pleiades,roman_republic,https://pleiades.stoa.org/places/285516,https://pleiades.stoa.org/places/285516,-30,300,0,False,unknown,35.5,1.5
285517,Sidi Djerbala,pleiades,roman_republic,https://pleiades.stoa.org/places/285517,https://pleiades.stoa.org/places/285517,-30,300,0,False,settlement,35.659957,1.568818
285518,Sidi Hamza,pleiades,roman_republic,https://pleiades.stoa.org/places/285518,https://pleiades.stoa.org/places/285518,-30,300,0,False,quarry,34.863734,-1.127986
285520,Si Slimane,pleiades,roman_republic,https://pleiades.stoa.org/places/285520,https://pleiades.stoa.org/places/285520,-30,300,0,False,settlement,35.060679,-1.4325
285521,Siga,pleiades,roman_republic,https://pleiades.stoa.org/places/285521,https://pleiades.stoa.org/places/285521,-550,640,0,False,settlement,35.2529245,-1.4517325
285524,Sorai,pleiades,roman_republic,https://pleiades.stoa.org/places/285524,https://pleiades.stoa.org/places/285524,-30,300,0,False,"label, people",35.7669979652,-0.135929059401
285525,Souama de Mecherasfa,pleiades,roman_republic,https://pleiades.stoa.org/places/285525,https://pleiades.stoa.org/places/285525,-30,640,0,False,settlement,35.383912,0.986222
285526,Souma,pleiades,roman_republic,https://pleiades.stoa.org/places/285526,https://pleiades.stoa.org/places/285526,-30,300,0,False,tomb,35.558636,1.314637
285528,Taladousioi,pleiades,roman_republic,https://pleiades.stoa.org/places/285528,https://pleiades.stoa.org/places/285528,-30,300,0,False,"label, people",35.0606275512,-1.16843101618
285529,Tasaccora,pleiades,roman_republic,https://pleiades.stoa.org/places/285529,https://pleiades.stoa.org/places/285529,-30,2099,0,False,"settlement, settlement-modern",35.53139345,-0.1914686
285532,Tazout,pleiades,roman_republic,https://pleiades.stoa.org/places/285532,https://pleiades.stoa.org/places/285532,-30,300,0,False,mine-2,35.814677,-0.457061
285533,Tect(...),pleiades,roman_republic,https://pleiades.stoa.org/places/285533,https://pleiades.stoa.org/places/285533,-30,300,0,False,settlement,35.020958,-0.528525
285534,Temordjanet,pleiades,roman_republic,https://pleiades.stoa.org/places/285534,https://pleiades.stoa.org/places/285534,-30,300,0,False,fort,35.146993,1.472522
285535,Tepidae,pleiades,roman_republic,https://pleiades.stoa.org/places/285535,https://pleiades.stoa.org/places/285535,-30,640,0,False,settlement,35.065103,-1.140982
285536,Tiaret,pleiades,roman_republic,https://pleiades.stoa.org/places/285536,https://pleiades.stoa.org/places/285536,-30,640,0,False,settlement,35.369234,1.327235
285538,Tolotai?,pleiades,roman_republic,https://pleiades.stoa.org/places/285538,https://pleiades.stoa.org/places/285538,-30,300,0,False,"label, people",34.9735202117,-0.448625022047
285539,Tourhzout,pleiades,roman_republic,https://pleiades.stoa.org/places/285539,https://pleiades.stoa.org/places/285539,-30,300,0,False,fort,35.004676,1.03686
285541,Trumelet,pleiades,roman_republic,https://pleiades.stoa.org/places/285541,https://pleiades.stoa.org/places/285541,-30,640,0,False,villa,35.395992,1.441323
286147,Untitled,pleiades,roman_republic,https://pleiades.stoa.org/places/286147,https://pleiades.stoa.org/places/286147,-30,300,0,False,aqueduct,35.5,-1.5
286148,Untitled,pleiades,roman_republic,https://pleiades.stoa.org/places/286148,https://pleiades.stoa.org/places/286148,-30,300,0,False,aqueduct,35.5,0.5
286902,Untitled,pleiades,roman_republic,https://pleiades.stoa.org/places/286902,https://pleiades.stoa.org/places/286902,-330,640,0,False,hillfort,34.5,-1.5
288412,Cluster of 9 mausolea,pleiades,roman_republic,https://pleiades.stoa.org/places/288412,https://pleiades.stoa.org/places/288412,-30,640,0,False,"tomb, cemetery",35.5,1.5
289167,Untitled,pleiades,roman_republic,https://pleiades.stoa.org/places/289167,https://pleiades.stoa.org/places/289167,-30,640,0,False,road,34.0,-1.0
289168,Untitled,pleiades,roman_republic,https://pleiades.stoa.org/places/289168,https://pleiades.stoa.org/places/289168,-30,640,0,False,road,34.0,-1.0
289169,Untitled,pleiades,roman_republic,https://pleiades.stoa.org/places/289169,https://pleiades.stoa.org/places/289169,-30,640,0,False,road,34.0,-1.0
289170,Untitled,pleiades,roman_republic,https://pleiades.stoa.org/places/289170,https://pleiades.stoa.org/places/289170,-30,300,0,False,road,34.0,-1.0
289171,Untitled,pleiades,roman_republic,https://pleiades.stoa.org/places/289171,https://pleiades.stoa.org/places/289171,-30,640,0,False,road,34.0,-1.0
289172,Untitled,pleiades,roman_republic,https://pleiades.stoa.org/places/289172,https://pleiades.stoa.org/places/289172,-30,640,0,False,road,34.0,-1.0
289173,Untitled,pleiades,roman_republic,https://pleiades.stoa.org/places/289173,https://pleiades.stoa.org/places/289173,-30,640,0,False,road,34.0,-1.0
289174,Unnamed road,pleiades,roman_republic,https://pleiades.stoa.org/places/289174,https://pleiades.stoa.org/places/289174,-30,640,0,False,road,35.2731076,-0.862981
289175,Untitled,pleiades,roman_republic,https://pleiades.stoa.org/places/289175,https://pleiades.stoa.org/places/289175,-30,640,0,False,road,34.0,-1.0
289176,Untitled,pleiades,roman_republic,https://pleiades.stoa.org/places/289176,https://pleiades.stoa.org/places/289176,-30,640,0,False,road,34.0,-1.0
289177,Untitled,pleiades,roman_republic,https://pleiades.stoa.org/places/289177,https://pleiades.stoa.org/places/289177,-30,640,0,False,road,34.0,-1.0
289178,Untitled,pleiades,roman_republic,https://pleiades.stoa.org/places/289178,https://pleiades.stoa.org/places/289178,-30,640,0,False,road,34.0,-1.0
289179,Untitled,pleiades,roman_republic,https://pleiades.stoa.org/places/289179,https://pleiades.stoa.org/places/289179,-30,640,0,False,road,34.0,-1.0
295207,el Abadia,pleiades,roman_republic,https://pleiades.stoa.org/places/295207,https://pleiades.stoa.org/places/295207,-30,300,0,False,settlement,36.267887,1.685606
295209,Agouni Tabet,pleiades,roman_republic,https://pleiades.stoa.org/places/295209,https://pleiades.stoa.org/places/295209,-30,300,0,False,settlement,36.783887,4.324969
295210,Ain Bessem,pleiades,roman_republic,https://pleiades.stoa.org/places/295210,https://pleiades.stoa.org/places/295210,-30,1999,0,False,fort-2,36.3199184868,3.65022679908
295211,Ain el Hammam,pleiades,roman_republic,https://pleiades.stoa.org/places/295211,https://pleiades.stoa.org/places/295211,-30,300,0,False,settlement,35.781097,1.126896
295212,Ain Titinguel,pleiades,roman_republic,https://pleiades.stoa.org/places/295212,https://pleiades.stoa.org/places/295212,-30,300,0,False,settlement,36.202092,0.485762
295213,Akbou des Ait bou Mahdi,pleiades,roman_republic,https://pleiades.stoa.org/places/295213,https://pleiades.stoa.org/places/295213,-30,300,0,False,tomb,36.531134,4.181324
295214,Akbou des Beni Chénacha,pleiades,roman_republic,https://pleiades.stoa.org/places/295214,https://pleiades.stoa.org/places/295214,-30,300,0,False,villa,36.7388456467,3.88746728721
295216,Aquae Calidae,pleiades,roman_republic,https://pleiades.stoa.org/places/295216,https://pleiades.stoa.org/places/295216,-30,640,0,False,settlement,36.379474,2.395618
295217,el Arba,pleiades,roman_republic,https://pleiades.stoa.org/places/295217,https://pleiades.stoa.org/places/295217,-30,640,0,False,settlement,36.4977032664,2.05146704432
295218,Arou Djaoud,pleiades,roman_republic,https://pleiades.stoa.org/places/295218,https://pleiades.stoa.org/places/295218,-30,300,0,False,quarry,36.556259,2.050352
295219,Arsennaria,pleiades,roman_republic,https://pleiades.stoa.org/places/295219,https://pleiades.stoa.org/places/295219,-330,640,0,False,settlement,36.334326,0.873111
295220,Artennites?,pleiades,roman_republic,https://pleiades.stoa.org/places/295220,https://pleiades.stoa.org/places/295220,-30,640,0,False,"label, people",36.3039794912,0.918632283798
295221,Auzia,pleiades,roman_republic,https://pleiades.stoa.org/places/295221,https://pleiades.stoa.org/places/295221,-30,300,0,False,settlement,36.1444475,3.691275
295223,el Azari,pleiades,roman_republic,https://pleiades.stoa.org/places/295223,https://pleiades.stoa.org/places/295223,-30,300,0,False,settlement,36.4635672086,3.36284354454
295225,Bantouraroi?,pleiades,roman_republic,https://pleiades.stoa.org/places/295225,https://pleiades.stoa.org/places/295225,-30,300,0,False,"label, people",36.332131598,2.53491812425
295226,Ben Naria,pleiades,roman_republic,https://pleiades.stoa.org/places/295226,https://pleiades.stoa.org/places/295226,-30,300,0,False,settlement,36.349216,1.366579
295227,el Biar,pleiades,roman_republic,https://pleiades.stoa.org/places/295227,https://pleiades.stoa.org/places/295227,-30,300,0,False,settlement,36.522743,3.888116
295228,Bida,pleiades,roman_republic,https://pleiades.stoa.org/places/295228,https://pleiades.stoa.org/places/295228,-30,2099,0,False,settlement,36.6821605,4.285625
295229,Blad Guitoun,pleiades,roman_republic,https://pleiades.stoa.org/places/295229,https://pleiades.stoa.org/places/295229,-30,1899,0,False,settlement,36.7327417535,3.60810297263
295230,Bou Atelli,pleiades,roman_republic,https://pleiades.stoa.org/places/295230,https://pleiades.stoa.org/places/295230,-30,300,0,False,settlement,36.682591,4.200045
295231,Bou Kisnaden,pleiades,roman_republic,https://pleiades.stoa.org/places/295231,https://pleiades.stoa.org/places/295231,-10000,640,0,False,"church-2, villa",36.559922,2.361208
295232,Boulalem,pleiades,roman_republic,https://pleiades.stoa.org/places/295232,https://pleiades.stoa.org/places/295232,-30,640,0,False,settlement,36.541068,2.148702
295233,Bou-Roukht,pleiades,roman_republic,https://pleiades.stoa.org/places/295233,https://pleiades.stoa.org/places/295233,-30,300,0,False,villa,36.603386,2.256551
295234,el Brabeur,pleiades,roman_republic,https://pleiades.stoa.org/places/295234,https://pleiades.stoa.org/places/295234,-30,300,0,False,settlement,36.095657,0.307186
295236,Cap Caxine,pleiades,roman_republic,https://pleiades.stoa.org/places/295236,https://pleiades.stoa.org/places/295236,-30,300,0,False,settlement,36.811558,2.954333
295237,Cap Ivi,pleiades,roman_republic,https://pleiades.stoa.org/places/295237,https://pleiades.stoa.org/places/295237,-30,640,0,False,settlement,36.119266,0.231134
295238,Cap Kramis,pleiades,roman_republic,https://pleiades.stoa.org/places/295238,https://pleiades.stoa.org/places/295238,-30,300,0,False,settlement,36.328046,0.661917
295239,Caput Cilani?,pleiades,roman_republic,https://pleiades.stoa.org/places/295239,https://pleiades.stoa.org/places/295239,-30,1999,0,False,"fortified-settlement, settlement",36.1245006755,2.82342448897
295240,Cartenna,pleiades,roman_republic,https://pleiades.stoa.org/places/295240,https://pleiades.stoa.org/places/295240,-330,640,0,False,settlement,36.510044,1.310964
295242,Cartili?,pleiades,roman_republic,https://pleiades.stoa.org/places/295242,https://pleiades.stoa.org/places/295242,-330,300,0,False,settlement,36.549862,1.700044
295243,Casae Calventi?,pleiades,roman_republic,https://pleiades.stoa.org/places/295243,https://pleiades.stoa.org/places/295243,-30,640,0,False,settlement,36.641597,2.68789
295244,Castellum Elephantaria?,pleiades,roman_republic,https://pleiades.stoa.org/places/295244,https://pleiades.stoa.org/places/295244,-30,2099,0,False,"settlement, settlement-modern",36.4674416,2.6879953
295245,Castellum Tingitanum,pleiades,roman_republic,https://pleiades.stoa.org/places/295245,https://pleiades.stoa.org/places/295245,-30,640,0,False,settlement,36.166446,1.332622
295246,Castellum Tulei,pleiades,roman_republic,https://pleiades.stoa.org/places/295246,https://pleiades.stoa.org/places/295246,-30,300,0,False,settlement,36.76875,3.792489
295247,Castra Germanorum,pleiades,roman_republic,https://pleiades.stoa.org/places/295247,https://pleiades.stoa.org/places/295247,-30,300,0,False,fort-2,36.5316103965,1.70709077436
295248,Cave-Hardy,pleiades,roman_republic,https://pleiades.stoa.org/places/295248,https://pleiades.stoa.org/places/295248,-30,640,0,False,villa,36.5726521905,2.10738445012
295249,Centenarium?,pleiades,roman_republic,https://pleiades.stoa.org/places/295249,https://pleiades.stoa.org/places/295249,-30,640,0,False,settlement,36.684174,4.175569
295250,Chénoua,pleiades,roman_republic,https://pleiades.stoa.org/places/295250,https://pleiades.stoa.org/places/295250,-30,300,0,False,quarry,36.627846,2.400851
295253,Cissi,pleiades,roman_republic,https://pleiades.stoa.org/places/295253,https://pleiades.stoa.org/places/295253,-30,640,0,False,settlement,36.877461,3.7334035
295255,Dar Mendil,pleiades,roman_republic,https://pleiades.stoa.org/places/295255,https://pleiades.stoa.org/places/295255,-30,1999,0,False,settlement,36.8444125266,3.68003740775
295256,Djezair el Kodra,pleiades,roman_republic,https://pleiades.stoa.org/places/295256,https://pleiades.stoa.org/places/295256,-30,300,0,False,settlement,36.780467,3.355386
295257,Douar Mazouna,pleiades,roman_republic,https://pleiades.stoa.org/places/295257,https://pleiades.stoa.org/places/295257,-30,300,0,False,settlement,36.1526443879,0.922145075635
295258,Dra Azib Boujet,pleiades,roman_republic,https://pleiades.stoa.org/places/295258,https://pleiades.stoa.org/places/295258,-30,300,0,False,settlement,36.775651,3.730723
295259,Dra Zeg et Ter,pleiades,roman_republic,https://pleiades.stoa.org/places/295259,https://pleiades.stoa.org/places/295259,-30,300,0,False,settlement,36.715143,3.692352
295261,Feratenses,pleiades,roman_republic,https://pleiades.stoa.org/places/295261,https://pleiades.stoa.org/places/295261,-30,640,0,False,"label, people",36.7759904075,4.38815090415
295262,Fer(r)atus M.,pleiades,roman_republic,https://pleiades.stoa.org/places/295262,https://pleiades.stoa.org/places/295262,-30,640,0,False,"mountain, label",36.8282549369,4.38678253083
295263,Fouka,pleiades,roman_republic,https://pleiades.stoa.org/places/295263,https://pleiades.stoa.org/places/295263,-30,300,0,False,settlement,36.665098,2.746637
295265,Ghorfa des Ouled Meriem,pleiades,roman_republic,https://pleiades.stoa.org/places/295265,https://pleiades.stoa.org/places/295265,-30,300,0,False,tomb,36.1394979561,3.57418368876
295267,Gouraya,pleiades,roman_republic,https://pleiades.stoa.org/places/295267,https://pleiades.stoa.org/places/295267,-550,300,0,False,settlement,36.566844,1.905412
295268,Gunugu,pleiades,roman_republic,https://pleiades.stoa.org/places/295268,https://pleiades.stoa.org/places/295268,-550,640,0,False,settlement,36.5629777331,1.865316461
295270,Haouch el Oudjani,pleiades,roman_republic,https://pleiades.stoa.org/places/295270,https://pleiades.stoa.org/places/295270,-30,300,0,False,fort,36.861432,3.827762
295271,el Hattaba,pleiades,roman_republic,https://pleiades.stoa.org/places/295271,https://pleiades.stoa.org/places/295271,-30,640,0,False,settlement,36.551689,2.2851
295273,Iar Castellum?,pleiades,roman_republic,https://pleiades.stoa.org/places/295273,https://pleiades.stoa.org/places/295273,-30,300,0,False,settlement,36.53072,1.568591
295274,Icampenses,pleiades,roman_republic,https://pleiades.stoa.org/places/295274,https://pleiades.stoa.org/places/295274,-30,640,0,False,"label, people",36.75,3.25
295275,Icherène,pleiades,roman_republic,https://pleiades.stoa.org/places/295275,https://pleiades.stoa.org/places/295275,-30,640,0,False,settlement,36.49292,2.146724
295276,Icosium,pleiades,roman_republic,https://pleiades.stoa.org/places/295276,https://pleiades.stoa.org/places/295276,-550,2100,0,False,settlement,36.7689125,3.0532175
295278,Imainserène,pleiades,roman_republic,https://pleiades.stoa.org/places/295278,https://pleiades.stoa.org/places/295278,-30,300,0,False,tomb,36.65063,4.211769
295279,Iol Caesarea,pleiades,roman_republic,https://pleiades.stoa.org/places/295279,https://pleiades.stoa.org/places/295279,-550,2100,0,False,"settlement, port",36.607058,2.1918495
295280,Iomnium,pleiades,roman_republic,https://pleiades.stoa.org/places/295280,https://pleiades.stoa.org/places/295280,-30,640,0,False,"settlement, archaeological-site",36.8948925622,4.12327220142
295281,Irbir,pleiades,roman_republic,https://pleiades.stoa.org/places/295281,https://pleiades.stoa.org/places/295281,-30,300,0,False,settlement,36.541001,4.188315
295282,Iril Oumaali,pleiades,roman_republic,https://pleiades.stoa.org/places/295282,https://pleiades.stoa.org/places/295282,-30,300,0,False,tomb,36.654721,4.192352
295283,el Isnam,pleiades,roman_republic,https://pleiades.stoa.org/places/295283,https://pleiades.stoa.org/places/295283,-30,300,0,False,settlement,36.421363,1.330837
295286,Kalaa,pleiades,roman_republic,https://pleiades.stoa.org/places/295286,https://pleiades.stoa.org/places/295286,-30,2099,0,False,"ruin, settlement",36.2247814541,0.871550001064
295287,Kalloul,pleiades,roman_republic,https://pleiades.stoa.org/places/295287,https://pleiades.stoa.org/places/295287,-30,300,0,False,settlement,36.420798,1.237538
295288,el Karimia,pleiades,roman_republic,https://pleiades.stoa.org/places/295288,https://pleiades.stoa.org/places/295288,-30,2099,0,False,settlement,36.1062420466,1.58251149502
295289,el Kessour,pleiades,roman_republic,https://pleiades.stoa.org/places/295289,https://pleiades.stoa.org/places/295289,-30,300,0,False,settlement,36.4929499629,1.58750901947
295290,Kherba de Sfisifa,pleiades,roman_republic,https://pleiades.stoa.org/places/295290,https://pleiades.stoa.org/places/295290,-30,1999,0,False,"church-2, settlement",36.0998390568,3.39506524086
295291,Kherba Sidi el Ahmar,pleiades,roman_republic,https://pleiades.stoa.org/places/295291,https://pleiades.stoa.org/places/295291,-30,300,0,False,settlement,36.035522,1.268594
295292,Kherbet Ramoul,pleiades,roman_republic,https://pleiades.stoa.org/places/295292,https://pleiades.stoa.org/places/295292,-330,640,0,False,settlement,36.324171,0.687871
295294,Koubba de Sidi Hamza,pleiades,roman_republic,https://pleiades.stoa.org/places/295294,https://pleiades.stoa.org/places/295294,-30,300,0,False,"fortified-settlement, settlement",36.2894083088,3.62672011544
295295,el Ksar,pleiades,roman_republic,https://pleiades.stoa.org/places/295295,https://pleiades.stoa.org/places/295295,-30,300,0,False,settlement,36.381709,1.494735
295296,el Ksar mta Bent es Soltane,pleiades,roman_republic,https://pleiades.stoa.org/places/295296,https://pleiades.stoa.org/places/295296,-30,300,0,False,fort,36.692122,3.981635
295297,Ksar Roumi,pleiades,roman_republic,https://pleiades.stoa.org/places/295297,https://pleiades.stoa.org/places/295297,-30,640,0,False,settlement,36.716492,3.758864
295299,Lambdia,pleiades,roman_republic,https://pleiades.stoa.org/places/295299,https://pleiades.stoa.org/places/295299,-30,640,0,False,settlement,36.266978,2.775955
